regcenterName;lendingOfficeName;lendingOfficeCode;type;organizationName;shopName;commercialNetName;shopCode;shopAddress;locationMessage;workingHours;latitude;longitude;order
ВОЛЖСКО-УРАЛЬСКИЙ;ЕКАТЕРИНБУРГ;1-4TFH-18;IPOS;Мобильный офис;new_mIPos_Каменск-Уральский_Проспект Победы д.11 А ТЦ Октябрьский;;660103452000123;623428, Свердловская обл, Каменск-Уральский г, Победы пр-кт, д. 11А;ТЦ Октябрьский, на 1 эт. у входа в ТЦ,  налево. Рядом отделение банка Хоум кредит;"Пн-Пт: 10:00-20:00 ; Сб: 10:00-20:00 ; Вс: 10:00-20:00";56.419577;61.91851;1,2 порядок
ВОЛЖСКО-УРАЛЬСКИЙ;ЕКАТЕРИНБУРГ;1-4TFH-18;POS;ИП Козлов Леонид Иванович;33 КОМОДА 2п, ИП Козлов Л.И., Первоуральск, Ленина, 10;;660102531000001;623101, Свердловская обл, Первоуральск г, Ленина ул, д. 10;ТТ 33 комода мебель в ТЦ КИТ на 2м этаже, вход рядом с Pizza Mia;"Пн-Пт: 10:00-19:00 ; Сб: 10:00-19:00 ; Вс: 10:00-19:00";56.9125773;59.9496725;1,2 порядок
ВОЛЖСКО-УРАЛЬСКИЙ;ЕКАТЕРИНБУРГ;1-4TFH-18;POS;ИП Некрасов Ю.А.;Спектр Бытовая техника, ИП Некрасов Ю.А.,  Артинский р-н, Арти пгт, Рабочей Молодежи ул, д. 96;;660103621000001;623340, Свердловская обл, Артинский р-н, Арти рп, Рабочей молодежи ул, д. 96;ТТ Спектр, ТЦ Лидер, 2 этаж, прямо с входа в ТТ;"Пн-Пт: 09:00-18:00 ; Сб: 09:00-16:00 ; Вс: 09:00-16:00";56.4128096;58.5343314;1,2 порядок
ВОЛЖСКО-УРАЛЬСКИЙ;ЕКАТЕРИНБУРГ;1-4TFH-18;POS;ИП Могильникова С.Н.;Эксперт Зибель, г. КРАСНОУФИМСК, ул. Мизерова, д. 115;;660100688001;623300, Свердловская обл, Красноуфимск г, Мизерова ул, д. 115;ТЦ Эксперт, центр города, рядом администрация;"Пн-Пт: 09:00-20:00 ; Сб: 09:00-18:00 ; Вс: 09:00-18:00";56.6156894;57.775535;1,2 порядок
ВОЛЖСКО-УРАЛЬСКИЙ;ЕКАТЕРИНБУРГ;1-4TFH-18;POS;ИП Плотников Ю.Н.;ТРИО, Ип Плотников Ю.Н., г. Первоуральск, ул. Трубников 19;;660100825000001;623104, Свердловская обл, Первоуральск г, Трубников ул, д. 19;ТТ Трио, центр города, жилой дом, 1 этаж;"Пн-Пт: 10:00-20:00 ; Сб: 10:00-20:00 ; Вс: 10:00-20:00";56.8995278;59.9520765;1,2 порядок
ВОЛЖСКО-УРАЛЬСКИЙ;ЕКАТЕРИНБУРГ;1-4TFH-18;POS;"ООО ""ДНС РИТЕЙЛ""";"ДНС Брокер УП, ООО ""ДНС Ритейл"" Свердловская обл., г. Камышлов, ул. Карла Маркса, 50";ЭКСПЕРТ-РИТЕЙЛ;250101734000328;624860, Свердловская обл, Камышлов г, Карла Маркса ул, д. 50;ТЦ ДНС, на втором этаже, центр города;"Пн-Пт: 10:00-20:00 ; Сб: 10:00-20:00 ; Вс: 10:00-20:00";56.8462811;62.6979238;1,2 порядок
ВОЛЖСКО-УРАЛЬСКИЙ;ЕКАТЕРИНБУРГ;1-4TFH-18;POS;ИП Плотников Ю.Н.;Трио Ревда точка 1,2 порядок;;660100825000003;623280, Свердловская обл, Ревда г, Максима Горького ул, д. 21;ТТ Трио, центр города, жилой дом, 1 этаж;"Пн-Пт: 10:00-18:00 ; Сб: 10:00-18:00 ; Вс: 10:00-18:00";56.7990032;59.9081612;1,2 порядок
ВОЛЖСКО-УРАЛЬСКИЙ;ЕКАТЕРИНБУРГ;1-4TFH-18;IPOS;Мобильный офис;NEW mIPOS Ирбит, ул. Советская д. 34, корпус б;;660103452000002;623850, Свердловская обл, Ирбит г, Советская ул, д. 34, кор. б;ТЦ  Антураж, на 1 эт. у входа в ТЦ;"Пн-Пт: 10:00-21:00 ; Сб: 10:00-21:00 ; Вс: 10:00-21:00";57.6773434;63.0648138;1,2 порядок
ВОЛЖСКО-УРАЛЬСКИЙ;ЕКАТЕРИНБУРГ;1-4TFH-18;POS;ИП Ясман Надежда Владимировна;Товары для дома, ИП Ясман Н.В., Каменск-Уральский, пр. Победы, 63;;6601567001;623428, Свердловская обл, Каменск-Уральский г, Победы пр-кт, д. 63;ТТ Товары для дома - мебель, 1 этаж, при входе направо, рядом расположен ТЦ Сити МОЛЛ;"Пн-Пт: 10:00-19:00 ; Сб: 10:00-17:00 ; Вс: 10:00-16:00";56.4240167;61.9031874;1,2 порядок
ВОЛЖСКО-УРАЛЬСКИЙ;ЕКАТЕРИНБУРГ;1-4TFH-18;POS;ПАНАЕВ КОНСТАНТИН ВАЛЕРЬЕВИЧ;220 v ИП ПАНАЕВ К.В. ТУРИНСК Социалистическая 77;;6601352001;623900, Свердловская обл, Туринский р-н, Туринск г, Социалистическая ул, д. 77;"ТТ 220V, 2 этаж, напротив входа, радом магазин ""Монетка""";"Пн-Пт: 09:00-19:00 ; Сб: 09:00-17:00 ; Вс: 09:00-17:00";58.0534135;63.6854705;1,2 порядок
ВОЛЖСКО-УРАЛЬСКИЙ;ИЖЕВСК;1-4TFH-39;IPOS;Мобильный офис;mIPOS_Сарапул_Горького_16 (ТЦ Европа);;660103452000129;427960, Удмуртская Респ, Сарапул г, Горького ул, д. 16;ТЦ Европа, вход рядом с магазином ДНС;"Пн-Пт: 10:00-20:00 ; Сб: 10:00-20:00 ; Вс: 10:00-20:00";56.4760904;53.8148867;1,2 порядок
ВОЛЖСКО-УРАЛЬСКИЙ;ИЖЕВСК;1-4TFH-39;POS;"ООО ""СТС 18""";СТС 18, ООО Сантеплоснаб, Ижевск г, Пойма ул, дом 7, офис 108;;180102079000002;426028, Удмуртская Респ, Ижевск г, Пойма ул, д. 7, офис 108;"Магазин ""хозяйственная база"" кредитный отдел 1 этаж, возле зоны банкоматов";"Пн-Пт: 10:00-19:00 ; Сб: 10:00-19:00 ; Вс: 10:00-19:00";56.8116005;53.1963439;1,2 порядок
ВОЛЖСКО-УРАЛЬСКИЙ;ИЖЕВСК;1-4TFH-39;POS;"ООО ""Техностиль""";"ТЕХПРОМ ВОТКИНСК, ООО ""Техностиль"", г.Воткинск, ул. 1 Мая, д.102";;180103145000001;427433, Удмуртская Респ, Воткинск г, 1 Мая ул, д. 102;магазин Техпром, сотрудник находится в конце торгового зала;"Пн-Пт: 10:00-20:00 ; Сб: 10:00-20:00 ; Вс: 10:00-20:00";57.0599698;53.9987442;1,2 порядок
ВОЛЖСКО-УРАЛЬСКИЙ;ИЖЕВСК;1-4TFH-39;POS;"ООО ""ДНС РИТЕЙЛ""";14-09 ДНС Брокер УП ООО ДНС РИТЕЙЛ г. Ижевск ул. Удмуртская,д. 268;ЭКСПЕРТ-РИТЕЙЛ;2501017340001876;426034, Удмуртская Респ, Ижевск г, Удмуртская ул, д. 268;точка продаж в магазине ДНС;"Пн-Пт: 09:00-21:00 ; Сб: 09:00-21:00 ; Вс: 09:00-21:00";56.8573582;53.223151;1,2 порядок
ВОЛЖСКО-УРАЛЬСКИЙ;ИЖЕВСК;1-4TFH-39;POS;"ООО ""Олис тур""";Коллекция путешествий_ООО Коллекция путешествий_г. Ижевск, ул. Пушкинская 284А;;180102263000001;426011, Удмуртская Респ, Ижевск г, Пушкинская ул, д. 284А;не указано;"Пн-Пт: 09:00-21:00 ; Сб: 09:00-21:00 ; Вс: 09:00-21:00";56.8710443;53.2087215;3 порядок
ВОЛЖСКО-УРАЛЬСКИЙ;ИЖЕВСК;1-4TFH-39;POS;"ООО ""ДНС РИТЕЙЛ""";14-09 ДНС Брокер УП ООО ДНС РИТЕЙЛ Удмуртская Респ., г. Воткинск, ул. 1 мая, д. 100;ЭКСПЕРТ-РИТЕЙЛ;2501017340001865;427433, Удмуртская Респ, Воткинск г, 1 Мая ул, д. 100;Точка продаж в магазине ДНС;"Пн-Пт: 10:00-20:00 ; Сб: 10:00-20:00 ; Вс: 10:00-20:00";57.0595416;53.9988874;1,2 порядок
ВОЛЖСКО-УРАЛЬСКИЙ;ИЖЕВСК;1-4TFH-39;POS;ИП Захаров А.И.;Мастер-Мебель ИП Захаров Ува Станционная, д. 2а;;1801231000001;427000, П.УВА, Станционная, д. 2а;"Магазин ""Мебельград"" кредитный отдел";"Пн-Пт: 09:00-18:00 ; Сб: 09:00-15:00 ; Вс: 09:00-15:00";56.9868663;52.1839387;1,2 порядок
ВОЛЖСКО-УРАЛЬСКИЙ;ИЖЕВСК;1-4TFH-39;POS;"ПО ""Сельское"", потребительский кооператив";"магазин ""Подворье"", ПО ""Сельское"", пос.Балезино, ул.Кооперативная, д.1";;180102806000001;427550, Удмуртская Респ, Балезинский р-н, Балезино п, Кооперативная ул, д. 1;"Райповский магазин ""Подворье"". 1 этаж, В одном здании с магазином DNS";"Пн-Пт: 09:00-17:00 ; Сб: 09:00-15:00 ; Вс: Выходной";57.9732433;53.0103598;1,2 порядок
ВОЛЖСКО-УРАЛЬСКИЙ;ИЖЕВСК;1-4TFH-39;POS;ИП Кокоулин Роман Владимирович;Мастер,ИП Кокоулин Р.В.,Сюмси с, Советская ул,дом 44;;180102772000001;427370, Удмуртская Респ, Сюмсинский р-н, Сюмси с, Советская ул, д. 44;не указано;"Пн-Пт: 09:00-21:00 ; Сб: 09:00-21:00 ; Вс: 09:00-21:00";57.1092399;51.6048406;3 порядок
ВОЛЖСКО-УРАЛЬСКИЙ;ИЖЕВСК;1-4TFH-39;POS;ИП Котова Т.В.;"""Мир техники""_ ИП Котова Т.В. пос.Кез, ул.Кооперативная, д.13";;180101177000001;427580, Удмуртская Респ, Кезский р-н, Кез п, Кооперативная ул, д. 13;"Магазин бытовой техники ""Весна"" 1 этаж";"Пн-Пт: 09:00-17:00 ; Сб: 09:00-14:00 ; Вс: Выходной";57.8951665;53.7129524;1,2 порядок
ВОЛЖСКО-УРАЛЬСКИЙ;ИЖЕВСК;1-4TFH-39;POS;"ООО ""ДНС РИТЕЙЛ""";14-09 ДНС Брокер УП ООО ДНС РИТЕЙЛ г. Сарапул ул. Горького,д. 16;ЭКСПЕРТ-РИТЕЙЛ;2501017340001873;427960, Удмуртская Респ, Сарапул г, Горького ул, д. 16;не указано;"Пн-Пт: 09:00-21:00 ; Сб: 09:00-21:00 ; Вс: 09:00-21:00";56.4760904;53.8148867;1,2 порядок
ВОЛЖСКО-УРАЛЬСКИЙ;ИЖЕВСК;1-4TFH-39;POS;ИП Черенев И.В.;"Магазин ""Дружба"" ИП Черенев И.В. ул.Драгунова д. 23";;180100568000001;427627, Удмуртская Респ, Глазов г, Драгунова ул, д. 23;Магазин садовой техники и инструмента. 1 ЭТАЖ;"Пн-Пт: 09:00-18:00 ; Сб: 09:00-15:00 ; Вс: 09:00-15:00";58.1291748;52.6722459;1,2 порядок
ВОЛЖСКО-УРАЛЬСКИЙ;ИЖЕВСК;1-4TFH-39;POS;ИП Уразбахтин Н.М.;Стройматериалы, ИП Уразбахтин Н.М., с. Алнаши, ул. Садовая, д.20;;180101418000004;427880, Удмуртская Респ, Алнашский р-н, Алнаши с, Садовая ул, д. 20;не указано;"Пн-Пт: 09:00-19:00 ; Сб: 09:00-19:00 ; Вс: 09:00-19:00";56.1869064;52.4725366;3 порядок
ВОЛЖСКО-УРАЛЬСКИЙ;ИЖЕВСК;1-4TFH-39;POS;ИП Симонович И.В.;ИП Симонович И.В. 3;;1801280003;422230, АГРЫЗ, К. Маркса, д. 11;не указано;"Пн-Пт: 08:00-19:00 ; Сб: 09:00-18:00 ; Вс: 09:00-18:00";56.5272637;52.9967669;3 порядок
ВОЛЖСКО-УРАЛЬСКИЙ;ИЖЕВСК;1-4TFH-39;POS;ИП Чеглакова Н.М.;MOBIL GRUPP Селты;;180100882000002;427000, С. СЕЛТЫ, Ленина, д. 13;не указано;"Пн-Пт: 10:00-20:00 ; Сб: 10:00-20:00 ; Вс: 10:00-20:00";57.3091642;52.1359272;3 порядок
ВОЛЖСКО-УРАЛЬСКИЙ;ИЖЕВСК;1-4TFH-39;POS;"ООО ""Техностиль""";"ТЕХПРОМ ГЛАЗОВ, ООО ""Техностиль"", г.Глазов, ул. Динамо, дом 5";;180103145000003;427621, Удмуртская Респ, Глазов г, Динамо ул, д. 5;Район центрального рынка. Магазин располагается в одном здании с DNS. Сотрудник Банка находиться на втором этаже;"Пн-Пт: 10:00-19:00 ; Сб: 10:00-18:00 ; Вс: 10:00-18:00";58.1368803;52.6597586;1,2 порядок
ВОЛЖСКО-УРАЛЬСКИЙ;ИЖЕВСК;1-4TFH-39;POS;ИП Ледянкин Дмитрий Константинович;"""Техно Топ"", ИП Ледянкин Д.К., г.Глазов, Пряженникова ул, д.14Б";;180103052000001;427621, Удмуртская респ, Глазов г, Пряженникова ул, д. 14Б;"ТТ находиться в одном здании с магазином ""Светофор"". Сотрудник банка находиться на втором этаже";"Пн-Пт: 10:00-19:00 ; Сб: 10:00-18:00 ; Вс: 10:00-18:00";58.1350671;52.6565914;1,2 порядок
ВОЛЖСКО-УРАЛЬСКИЙ;ИЖЕВСК;1-4TFH-39;POS;ИП Симонович И.В.;Пятерка 1,2 порядок , ИП Симонович И.В. с. Малая Пурга, ул.Советская, д.59;;1801280000002;427820, Удмуртская респ, Малопургинский р-н, Малая Пурга с, Советская ул, д. 59;"Магазин ""пятерка"". 2 этаж, отдел с бытовой техникой. Подходить к кассе";"Пн-Пт: 09:00-19:00 ; Сб: 09:00-19:00 ; Вс: 09:00-19:00";56.54586;53.0039608;1,2 порядок
ВОЛЖСКО-УРАЛЬСКИЙ;ИЖЕВСК;1-4TFH-39;POS;ИП Перевозчикова Н.В.;"""Бензосила"", ИП Перевозчикова Н.В., пос.Игра, мкр.Нефтяников, д.30";;180101397000002;427145, Удмуртская Респ, Игринский р-н, Игра п, Нефтяников мкр, д. 30;оформление - В здании Универмага (райповский магазин) напротив Церкви. 1 этаж;"Пн-Пт: 09:00-17:00 ; Сб: 09:00-14:00 ; Вс: Выходной";57.543125;53.0840894;1,2 порядок
ВОЛЖСКО-УРАЛЬСКИЙ;ИЖЕВСК;1-4TFH-39;POS;ИП Залазаева Л.М.;"Меком ""Азбука ремонта""_ИП Залазаева Л.М., г Ижевск, ул Молодежная, д.107б, офис 335";;180101659000005;426072, Удмуртская Респ, Ижевск г, Молодежная ул, д. 107б;не указано;"Пн-Пт: 09:00-21:00 ; Сб: 09:00-21:00 ; Вс: 09:00-21:00";56.854064;53.293983;3 порядок
ВОЛЖСКО-УРАЛЬСКИЙ;ИЖЕВСК;1-4TFH-39;POS;КАЗАНЦЕВА СВЕТЛАНА ВАЛЕРЬЕВНА;Мебельный двор, ИП Казанцева С.В., г. Можга, ул. Можгинская, д. 62;;1801122000006;427790, Удмуртская Респ, Можга г, Можгинская ул, д. 62;Мебельный Двор, 1 этаж;"Пн-Пт: 10:00-18:00 ; Сб: 10:00-17:00 ; Вс: 10:00-17:00";56.4417065;52.2132876;1,2 порядок
ВОЛЖСКО-УРАЛЬСКИЙ;ИЖЕВСК;;POS;"ООО ""КРЕДИТНЫЕ СИСТЕМЫ""";14-09 КБМ РБТ г Воткинск ул 1 Мая д 77;КРЕДИТ БРОКЕР МЕНЕДЖМЕНТ;770106821000002;427433, Удмуртская Респ, Воткинск г, 1 Мая ул, д. 77;магазин РБТ, 2ой этаж, кредитная зона;"Пн-Пт: 09:00-21:00 ; Сб: 09:00-21:00 ; Вс: 09:00-21:00";57.0594272;53.9978547;1,2 порядок
ВОЛЖСКО-УРАЛЬСКИЙ;КАЗАНЬ;1-4TFH-14;POS;ИП Хурамшин Риназ Рамизович;Tele2 ИП Хурамшин Р.Р., РТ, г.Наб.Челны, пр-т. Набережночелнинский, д.8а;КРЕДИТНЫЙ ОТДЕЛ;160102420000007;423800, Татарстан Респ, Набережные Челны г, Набережночелнинский пр-кт, д. 8, кор. а;не указано;"Пн-Пт: 09:00-21:00 ; Сб: 09:00-21:00 ; Вс: 09:00-21:00";55.70598;52.351955;3 порядок
ВОЛЖСКО-УРАЛЬСКИЙ;КАЗАНЬ;1-4TFH-14;POS;;"14-09 СИТИЛИНК ООО ""Ситилинк"",  Республика Татарстан, г. Альметьевск, ул Ленина 1 В(оффлайн)";;770103914012114;423458, Татарстан Респ, Альметьевский р-н, Альметьевск г, Ленина ул, д. 1В;ТЦ Час Пик магазин Ситилинк;"Пн-Пт: 09:00-21:00 ; Сб: 09:00-21:00 ; Вс: 09:00-21:00";54.903785;52.314436;1,2 порядок
ВОЛЖСКО-УРАЛЬСКИЙ;КАЗАНЬ;1-4TFH-14;POS;ЭЛИС НУРЛАТ;"ООО ""Элис"" г. Нурлат, ул. Карла Маркса, д. 10";;1602079001;423040, Татарстан Респ, Нурлатский р-н, Нурлат г, К.Маркса ул, д. 10;Точка продаж в магазине Цифропарк;"Пн-Пт: 08:00-18:00 ; Сб: 08:00-18:00 ; Вс: 08:00-18:00";54.430733;50.804756;1,2 порядок
ВОЛЖСКО-УРАЛЬСКИЙ;КАЗАНЬ;1-4TFH-14;POS;ИП Якупова Эльвира Дамировна;Жевит ИП Якупова Э.Д. Буинск г,Ефремова ул,дом 31;;160101560000001;422430, Татарстан Респ, Буинский р-н, Буинск г, Ефремова ул, д. 31;Магазин Жевит напротив Лидера;"Пн-Пт: 10:00-18:00 ; Сб: 10:00-18:00 ; Вс: 10:00-18:00";54.962995;48.2817743;1,2 порядок
ВОЛЖСКО-УРАЛЬСКИЙ;КАЗАНЬ;1-4TFH-14;POS;ИП Ильдимиров Петр Александрович;Детские товары Ильдимиров;;1601234001;422980, Татарстан Респ, Чистопольский р-н, Чистополь г, Ленина ул, д. 40;магазин Техноград на Ленина;"Пн-Пт: 09:00-18:30 ; Сб: 09:00-18:30 ; Вс: 09:00-18:30";55.3700656;50.6443497;1,2 порядок
ВОЛЖСКО-УРАЛЬСКИЙ;КАЗАНЬ;1-4TFH-14;POS;"ООО ""ДНС РИТЕЙЛ""";"14-09 ""ДНС, ООО """"ДНС РИТЕЙЛ"", Нижнекамский, р-н, Нижнекамск, г, Менделеева, ул, дом 31 А";ЭКСПЕРТ-РИТЕЙЛ;2501017340001676;423584, Татарстан респ, Нижнекамский р-н, Нижнекамск г, Менделеева ул, д. 31А;ТЦ БАРС;"Пн-Пт: 09:00-21:00 ; Сб: 09:00-21:00 ; Вс: 09:00-21:00";55.6545716;51.8262741;1,2 порядок
ВОЛЖСКО-УРАЛЬСКИЙ;КАЗАНЬ;1-4TFH-14;POS;"ООО ""ДНС РИТЕЙЛ""";"ДНС Брокер УП, ООО ""ДНС Ритейл"" 423040,Татарстан,г. Нурлат,ул. К. Маркса,д. 19,";ЭКСПЕРТ-РИТЕЙЛ;250101734000622;423040, Татарстан респ, Нурлатский р-н, Нурлат г, К.Маркса ул, д. 19;Магазин ДНС;"Пн-Пт: 10:00-22:00 ; Сб: 10:00-22:00 ; Вс: 10:00-22:00";54.4320152;50.8052306;1,2 порядок
ВОЛЖСКО-УРАЛЬСКИЙ;КАЗАНЬ;1-4TFH-14;POS;"ООО ""ДНС РИТЕЙЛ""";14-09 ДНС Брокер УП ООО ДНС РИТЕЙЛ Татарстан Респ, Актанышский,р-н, Актаныш с, Ленина пр-кт, дом 131;ЭКСПЕРТ-РИТЕЙЛ;2501017340001858;423740, Татарстан Респ, Актанышский р-н, Актаныш с, Ленина пр-кт, д. 131;магазин ДНС;"Пн-Пт: 09:00-21:00 ; Сб: 09:00-21:00 ; Вс: 09:00-21:00";55.719923;54.066074;1,2 порядок
ВОЛЖСКО-УРАЛЬСКИЙ;КАЗАНЬ;1-4TFH-14;POS;"ООО ""ДНС РИТЕЙЛ""";14-09 ДНС Брокер УП ООО ДНС РИТЕЙЛ Татарстан, г. Менделеевск, ул. Октябрьская, д. 5;ЭКСПЕРТ-РИТЕЙЛ;2501017340001862;423650, Татарстан Респ, Менделеевский р-н, Менделеевск г, Октябрьская ул, д. 5;магазин ДНС;"Пн-Пт: 09:00-21:00 ; Сб: 09:00-21:00 ; Вс: 09:00-21:00";55.8935379;52.3119997;1,2 порядок
ВОЛЖСКО-УРАЛЬСКИЙ;КАЗАНЬ;1-4TFH-14;POS;"ООО ""ДНС РИТЕЙЛ""";"14-09 ""ДНС, ООО """"ДНС РИТЕЙЛ"""",  ,Татарстан,,г. Лениногорск,,ул. Крупской,д. 2,корп. В,";ЭКСПЕРТ-РИТЕЙЛ;2501017340001666;423258, Татарстан респ, Лениногорский р-н, Лениногорск г, Крупской ул, д. 2, кор. В;Магазин ДНС;"Пн-Пт: 09:00-21:00 ; Сб: 09:00-21:00 ; Вс: 09:00-21:00";54.5930749;52.4446603;1,2 порядок
ВОЛЖСКО-УРАЛЬСКИЙ;КАЗАНЬ;1-4TFH-14;POS;"ООО ""ДНС РИТЕЙЛ""";"14-09 ДНС Брокер УП, ООО ""ДНС РИТЕЙЛ"", Набережные Челны, г, Виктора Полякова, ул, дом 7";ЭКСПЕРТ-РИТЕЙЛ;2501017340001964;423800, Татарстан Респ, Набережные Челны г, Виктора Полякова ул, д. 7;магазин ДНС;"Пн-Пт: 09:00-21:00 ; Сб: 09:00-21:00 ; Вс: 09:00-21:00";55.7589229;52.4596188;1,2 порядок
ВОЛЖСКО-УРАЛЬСКИЙ;КАЗАНЬ;1-4TFH-14;POS;"ООО ""ДНС РИТЕЙЛ""";"14-09 ""ДНС, ООО """"ДНС РИТЕЙЛ"""", Татарстан, Респ,Мензелинск, г, Ленина, ул, дом 86/32";ЭКСПЕРТ-РИТЕЙЛ;2501017340001665;423700, Татарстан респ, Мензелинский р-н, Мензелинск г, Ленина ул, д. 86/32;магазин ДНС;"Пн-Пт: 09:00-21:00 ; Сб: 09:00-21:00 ; Вс: 09:00-21:00";55.7217578;53.1033135;1,2 порядок
ВОЛЖСКО-УРАЛЬСКИЙ;КАЗАНЬ;1-4TFH-14;POS;"ООО ""ДНС РИТЕЙЛ""";"ДНС Брокер УП, ООО ""ДНС Ритейл"" 423237,Татарстан,г. Бугульма,ул. Гафиатуллина,д. 50,";ЭКСПЕРТ-РИТЕЙЛ;250101734000617;423237, Татарстан респ, Бугульминский р-н, Бугульма г, Газинура Гафиатуллина ул, д. 50;магазин ДНС;"Пн-Пт: 10:00-22:00 ; Сб: 10:00-22:00 ; Вс: 10:00-22:00";54.5307583;52.8032619;1,2 порядок
ВОЛЖСКО-УРАЛЬСКИЙ;КАЗАНЬ;1-4TFH-14;POS;"ООО ""ДНС РИТЕЙЛ""";14-09 ДНС Брокер УП ООО ДНС РИТЕЙЛ Татарстан Респ, Набережные Челны г, Сююмбике пр-кт, дом 67В;ЭКСПЕРТ-РИТЕЙЛ;2501017340001863;423816, Татарстан Респ, Набережные Челны г, Сююмбике пр-кт, д. 67, кор. В;ТЦ Сююмбике, цокольный этаж;"Пн-Пт: 09:00-21:00 ; Сб: 09:00-21:00 ; Вс: 09:00-21:00";55.7545182;52.4107694;1,2 порядок
ВОЛЖСКО-УРАЛЬСКИЙ;КАЗАНЬ;1-4TFH-14;POS;"ООО ""ДНС РИТЕЙЛ""";14-09 ДНС Брокер УП ООО ДНС РИТЕЙЛ Татарстан, г. Наб. Челны, пр-т Мира, д. 88/20;ЭКСПЕРТ-РИТЕЙЛ;2501017340001864;423827, Татарстан Респ, Набережные Челны г, Мира пр-кт, д. 88/20;ТЦ 110 2 этаж;"Пн-Пт: 09:00-21:00 ; Сб: 09:00-21:00 ; Вс: 09:00-21:00";55.7557775;52.4326875;1,2 порядок
ВОЛЖСКО-УРАЛЬСКИЙ;КАЗАНЬ;1-4TFH-14;POS;"ООО ""ДНС РИТЕЙЛ""";14-09 ДНС Брокер УП ООО ДНС Ритейл Буинский р-н, Буинск г, Космовского ул, дом 79;ЭКСПЕРТ-РИТЕЙЛ;2501017340001706;422430, Татарстан респ, Буинский р-н, Буинск г, Космовского ул, д. 79;магазин ДНС;"Пн-Пт: 09:00-21:00 ; Сб: 09:00-21:00 ; Вс: 09:00-21:00";54.9766216;48.2996015;1,2 порядок
ВОЛЖСКО-УРАЛЬСКИЙ;КАЗАНЬ;1-4TFH-14;POS;ИП Фёдорова О.Н.;Аскона Рамусмолл_ИП Фёдорова О.Н._ Нижнекамск г, Сююмбике ул, д. 7;;160201607000004;423570, Татарстан Респ, Нижнекамский р-н, Нижнекамск г, Сююмбике ул, д. 7;не указано;"Пн-Пт: 09:00-21:00 ; Сб: 09:00-21:00 ; Вс: 09:00-21:00";55.650729;51.802043;3 порядок
ВОЛЖСКО-УРАЛЬСКИЙ;КАЗАНЬ;1-4TFH-14;POS;ИП Загидуллина О. В.;Лидер Инструмент, ИП Загидуллина О. В., г. Бугульма, ул. Советская, д. 103;;160200910000001;423237, Татарстан Респ, Бугульминский р-н, Бугульма г, Советская ул, д. 103;ТЦ Лидер Инструмент, магазин ДНС;"Пн-Пт: 08:00-18:00 ; Сб: 08:00-17:00 ; Вс: 08:00-17:00";54.5353373;52.8070599;1,2 порядок
ВОЛЖСКО-УРАЛЬСКИЙ;КАЗАНЬ;1-4TFH-14;POS;ИП Фёдорова О.Н.;Аскона Рамусмолл_ Интернет ИП Фёдорова О.Н._ Нижнекамск г, Сююмбике ул, д. 7А;;160201607000003;423570, Татарстан Респ, Нижнекамский р-н, Нижнекамск г, Сююмбике ул, д. 7А;не указано;"Пн-Пт: 09:00-21:00 ; Сб: 09:00-21:00 ; Вс: 09:00-21:00";55.650729;51.802043;3 порядок
ВОЛЖСКО-УРАЛЬСКИЙ;КАЗАНЬ;1-4TFH-14;POS;ИП Хамидуллин Фанис Наилович;Мебельград ИП Хамидуллин Ф.Н., пгт. Апастово, ул. Ленина, д. 88Б;;160101105000002;422350, Татарстан Респ, Апастовский р-н, Апастово пгт, Ленина ул, д. 88, кор. Б;ТЦ Муравейник пав.№3;"Пн-Пт: 09:00-21:00 ; Сб: 09:00-21:00 ; Вс: 09:00-21:00";55.203423;48.51438;1,2 порядок
ВОЛЖСКО-УРАЛЬСКИЙ;КАЗАНЬ;1-4TFH-14;POS;ИП Лутфуллин М.А.;Мебель Тулпар, ИП Лутфуллин М.А., Набережные Челны г, Московский пр-кт, д. 128;DIRECT CREDIT 2015;160201671000001;423800, Татарстан Респ, Набережные Челны г, Московский пр-кт, д. 128;не указано;"Пн-Пт: 09:00-21:00 ; Сб: 09:00-21:00 ; Вс: 09:00-21:00";55.73593;52.417011;3 порядок
ВОЛЖСКО-УРАЛЬСКИЙ;КАЗАНЬ;1-4TFH-14;POS;"ООО ""ДНС РИТЕЙЛ""";14-09 ДНС Брокер УП ООО ДНС РИТЕЙЛ Марий Эл Респ, Волжск г, Ленина ул, дом 57;ЭКСПЕРТ-РИТЕЙЛ;2501017340001852;425000, Марий Эл Респ, Волжск г, Ленина ул, д. 57;Магазин ДНС около автовокзала , напротив центрального рынка;"Пн-Пт: 09:00-21:00 ; Сб: 09:00-21:00 ; Вс: 09:00-21:00";55.864808;48.357426;1,2 порядок
ВОЛЖСКО-УРАЛЬСКИЙ;КАЗАНЬ;1-4TFH-14;POS;"ООО ""ДНС РИТЕЙЛ""";"ДНС Брокер УП, ООО ""ДНС Ритейл"" 423520,Татарстан,г. Заинск,ул. Ялчыгола,д. 13,";ЭКСПЕРТ-РИТЕЙЛ;250101734000615;423520, Татарстан респ, Заинский р-н, Заинск г, Ялчыгола ул, д. 13;магазин ДНС;"Пн-Пт: 10:00-22:00 ; Сб: 10:00-22:00 ; Вс: 10:00-22:00";55.28716;52.005764;1,2 порядок
ВОЛЖСКО-УРАЛЬСКИЙ;КАЗАНЬ;1-4TFH-14;POS;ИП Винокуров С.В.;Колеса Даром ИП Винокуров С.В.,423600, РТ, г.Елабуга, пр.Нефтяников,д.4;;160301178000003;423600, Татарстан Респ, Елабужский р-н, Елабуга г, Нефтяников пр-кт, д. 4;Магазин Колеса Даром 2 этаж;"Пн-Пт: 09:00-21:00 ; Сб: 09:00-21:00 ; Вс: 09:00-21:00";55.7474251;52.0069279;1,2 порядок
ВОЛЖСКО-УРАЛЬСКИЙ;КАЗАНЬ;1-4TFH-14;POS;"ООО ""ДНС РИТЕЙЛ""";14-09 ДНС Брокер УП ООО ДНС РИТЕЙЛ Татарстан Респ, Чистополь г, Энгельса ул, дом 142;ЭКСПЕРТ-РИТЕЙЛ;2501017340001851;422986, Татарстан Респ, Чистопольский р-н, Чистополь г, Энгельса ул, д. 142;ДНС в ТЦ Эссен;"Пн-Пт: 09:00-20:00 ; Сб: 09:00-20:00 ; Вс: 09:00-20:00";55.3641974;50.5897373;1,2 порядок
ВОЛЖСКО-УРАЛЬСКИЙ;КАЗАНЬ;1-4TFH-14;POS;;"Ситилинк, ООО ""Ситилинк"", г.Набережные Челны, ул.Вахитова, д.13Б";;770103914012054;423802, Татарстан Респ, Набережные Челны г, Вахитова ул, д. 13Б;ТЦ ПЕРВЫЙ магазин Ситилинк 2 этаж;"Пн-Пт: 09:00-21:00 ; Сб: 09:00-21:00 ; Вс: 09:00-21:00";55.7434619;52.3959165;1,2 порядок
ВОЛЖСКО-УРАЛЬСКИЙ;КИРОВ;1-4TFH-83;POS;ГРУХИН К В;"4301235000033_MicroIPOS ""Билайн"" ИП Грухин К.В., г. Вятские Поляны ул. Мира д. 44";;4301235000033;612960, Кировская обл, Вятскополянский р-н, Вятские Поляны г, Мира ул, д. 44;Магазин Билайн, цокольный этаж, кредитный отдел;"Пн-Пт: 09:00-18:00 ; Сб: 09:00-18:00 ; Вс: 09:00-18:00";56.2238103;51.0767734;1,2 порядок
ВОЛЖСКО-УРАЛЬСКИЙ;КИРОВ;1-4TFH-83;POS;"ООО ""А3""";"""Техпром"", ООО ""А3"", г. Котельнич, ул. Кирова, д. 20";;770104830000014;612600, Кировская обл, Котельничский р-н, Котельнич г, Кирова ул, д. 20;Магазин, Техпром, 1 этаж, кредитный отдел;"Пн-Пт: 09:00-18:00 ; Сб: 09:00-16:00 ; Вс: 10:00-15:00";58.3043757;48.3418322;1,2 порядок
ВОЛЖСКО-УРАЛЬСКИЙ;КИРОВ;1-4TFH-83;POS;"ООО ""А3""";Техпром, ООО А3, г.Уржум, ул. Рокина, д.7;;770104830000022;613530, Кировская обл, Уржумский р-н, Уржум г, Рокина ул, д. 7;Магазин техпром, 1 этаж, кредитный отдел;"Пн-Пт: 09:00-18:00 ; Сб: 09:00-17:00 ; Вс: 09:00-17:00";57.1137969;50.0037167;1,2 порядок
ВОЛЖСКО-УРАЛЬСКИЙ;КИРОВ;1-4TFH-83;POS;"ООО ""ДНС РИТЕЙЛ""";14-09 ДНС БРОКЕР ООО ДНС Ритейл Кировская обл, Киров г, Советская ул, дом 28а ТЦ Олимп;ЭКСПЕРТ-РИТЕЙЛ;2501015020002772;610008, Кировская обл, Киров г, Советская ул, д. 28а;ТЦ Олимп, 1 Этаж, кредитный отдел;"Пн-Пт: 09:00-21:00 ; Сб: 09:00-21:00 ; Вс: 09:00-21:00";58.5108294;49.698703;1,2 порядок
ВОЛЖСКО-УРАЛЬСКИЙ;КИРОВ;1-4TFH-83;POS;"ООО ""ДНС РИТЕЙЛ""";"ДНС, ООО ""ДНС РИТЕЙЛ"", г. Нолинск, ул. Безымянная, д. 8 а";ЭКСПЕРТ-РИТЕЙЛ;2501015020001731;613440, Кировская обл, Нолинский р-н, Нолинск г, Безымянная ул, д. 8 а;Магазин ДНС, 1 этаж, кредитный отдел.;"Пн-Пт: 09:00-19:00 ; Сб: 09:00-19:00 ; Вс: 09:00-19:00";57.5539984;49.9392656;1,2 порядок
ВОЛЖСКО-УРАЛЬСКИЙ;КИРОВ;1-4TFH-83;POS;"ООО ""ДНС РИТЕЙЛ""";14-09 ДНС Брокер УП ООО ДНС РИТЕЙЛ Кировская обл, Киров г, Дзержинского ул, дом 62;ЭКСПЕРТ-РИТЕЙЛ;2501017340001821;610047, Кировская обл, Киров г, Дзержинского ул, д. 62;Магазин ДНС, цокольный этаж, кредитный отдел.;"Пн-Пт: 09:00-21:00 ; Сб: 09:00-21:00 ; Вс: 09:00-21:00";58.6331307;49.6162453;1,2 порядок
ВОЛЖСКО-УРАЛЬСКИЙ;КИРОВ;1-4TFH-83;POS;ИП Ахтямова Д.М.;"""Мебель"", ИП Ахтямова Д.М., пгт. Кильмезь, ул. Советская, д. 76 а";;430102592000001;613570, Кировская обл, Кильмезский р-н, Кильмезь пгт, Советская ул, д. 76а;Магазин Мебель, кредитный отдел;"Пн-Пт: 09:00-17:00 ; Сб: 09:00-13:30 ; Вс: 09:00-13:30";56.9456483;51.0626685;1,2 порядок
ВОЛЖСКО-УРАЛЬСКИЙ;КИРОВ;1-4TFH-83;POS;"ООО ""ДНС РИТЕЙЛ""";"14-09 ""ДНС, ООО """"ДНС РИТЕЙЛ"""", г.Омутнинск ул.Свободы д.16";ЭКСПЕРТ-РИТЕЙЛ;2501015020001809;612740, Кировская обл, Омутнинский р-н, Омутнинск г, Свободы ул, д. 16;Магазин ДНС, 1 Этаж, кредитный отдел.;"Пн-Пт: 09:00-19:00 ; Сб: 09:00-19:00 ; Вс: 09:00-19:00";58.6659167;52.1754159;1,2 порядок
ВОЛЖСКО-УРАЛЬСКИЙ;КИРОВ;1-4TFH-83;POS;"ООО ""А3""";"""Техпром"", ООО ""А3"", г. Зуевка, ул. Республики, д. 22";;770104830000027;612410, Кировская обл, Зуевский р-н, Зуевка г, Республики ул, д. 22;Магазин, Техпром, 1 этаж, кредитный отдел;"Пн-Пт: 09:00-18:00 ; Сб: 09:00-17:00 ; Вс: 09:00-15:00";58.40247;51.133892;1,2 порядок
ВОЛЖСКО-УРАЛЬСКИЙ;КИРОВ;1-4TFH-83;POS;ИП Шалаева Л.В.;«Оптима Мебель» ТЦ Весна;;4301298000001;610014, Кировская обл, Киров г, Щорса ул, д. 73;"ТЦ ""Весна"", 1 этаж, кредитный отдел";"Пн-Пт: 10:00-20:00 ; Сб: 10:00-18:00 ; Вс: 10:00-18:00";58.5780569;49.6067115;1,2 порядок
ВОЛЖСКО-УРАЛЬСКИЙ;КИРОВ;1-4TFH-83;POS;"ООО ""А3""";"""Техпром"", ООО ""А3"", г. Советск, ул. Ленина, д. 67";;770104830000015;613340, Кировская обл, Советский р-н, Советск г, Ленина ул, д. 67;Магазин техпром, 1 этаж, кредитный отдел;"Пн-Пт: 09:00-18:00 ; Сб: 09:00-17:00 ; Вс: 09:00-16:00";57.5839289;48.9537321;1,2 порядок
ВОЛЖСКО-УРАЛЬСКИЙ;МАГНИТОГОРСК;1-4TFH-63;IPOS;Мобильный офис;NEW mIPOS Карталы, ТЦ Фрегат, Калмыкова ул. Д. 5 А;;660103452000006;457351, Челябинская обл, Карталинский р-н, Карталы г, Калмыкова ул, д. 5а;ТЦ Фрегат, 1 этаж, с центрального входа и направо, возле банкоматов;"Пн-Пт: 10:00-19:00 ; Сб: 10:00-19:00 ; Вс: 10:00-19:00";53.0548482;60.6348015;1,2 порядок
ВОЛЖСКО-УРАЛЬСКИЙ;МАГНИТОГОРСК;1-4TFH-63;POS;МАКАРОВ Р.И.;ИП Макаров(Учалы);;7402042001;453701, Башкортостан Респ, Учалинский р-н, Учалы г, 50 лет Октября ул, д. 5;"магазин ""Олимп"", кредитная зона прямо у входа";"Пн-Пт: 10:00-19:00 ; Сб: 10:00-19:00 ; Вс: 10:00-19:00";54.3177464;59.3747285;1,2 порядок
ВОЛЖСКО-УРАЛЬСКИЙ;МАГНИТОГОРСК;1-4TFH-63;IPOS;Мобильный офис;new_mIPos_Магнитогорск_ул.Карла_Маркса_д.153(ТЦ_Гостиный_двор);;660103452000004;455038, Челябинская обл, Магнитогорск г, Карла Маркса пр-кт, д. 153;"ТЦ Гостиный двор, цокольный этаж, под эскалатором напротив магазина ""Модис""";"Пн-Пт: 09:00-21:00 ; Сб: 09:00-21:00 ; Вс: 09:00-21:00";53.3786826;58.9816174;1,2 порядок
ВОЛЖСКО-УРАЛЬСКИЙ;МАГНИТОГОРСК;1-4TFH-63;POS;ИП Сыва Наталя Андреевна;Руслан, ИП Сыва Н.А., г. Магнитогорск, ул. Грязнова, д. 57, ТЦ 1, пав. 2;;740200451000001;455000, Челябинская обл, Магнитогорск г, Грязнова ул, д. 57, кор. 1, офис 2;"Центральная городская ярмарка ул.Грязнова дом 57 , ТЦ Гранд Меха (остановка общ.транспорта ""Цирк""), 1 этаж, павильон 47 (кредитный отдел)";"Пн-Пт: 10:00-19:00 ; Сб: 10:00-19:00 ; Вс: 10:00-19:00";53.398482;58.9920584;1,2 порядок
ВОЛЖСКО-УРАЛЬСКИЙ;МАГНИТОГОРСК;1-4TFH-63;POS;"ООО ""АКС""";"Билайн, ООО ""АКС"", Зилаир с, Ленина ул, д.83";;740201708000001;453680, Башкортостан Респ, Зилаирский р-н, Зилаир с, Ленина ул, д. 83;"ТЦ ""Гермес"",магазин ""АКС"", наверх по лестнице и направо (2 этаж)";"Пн-Пт: 10:00-20:00 ; Сб: 10:00-20:00 ; Вс: 10:00-20:00";52.2339822;57.4392229;1,2 порядок
ВОЛЖСКО-УРАЛЬСКИЙ;МАГНИТОГОРСК;1-4TFH-63;IPOS;Мобильный офис;NEW mIPOS, г.Белорецк, ул.50 лет Октября, д.78;;660103452000005;453501, Башкортостан респ, Белорецкий р-н, Белорецк г, 50 лет Октября ул, д. 78;"ТЦ ""8 марта"", 1 этаж ,стойка находится возле магазина ""Монетка""";"Пн-Пт: 10:00-20:00 ; Сб: 10:00-20:00 ; Вс: 10:00-20:00";53.9713814;58.4264913;1,2 порядок
ВОЛЖСКО-УРАЛЬСКИЙ;МАГНИТОГОРСК;1-4TFH-63;IPOS;Мобильный офис;NEW miPos_Магнитогорск_ул.Герцена_д.6;;660103452000187;455001, Челябинская обл, Магнитогорск г, Герцена ул, д. 6;"ТЦ ""джаз молл"", 1 этаж, под эскалатором ,около магазина ""Перекресток""";"Пн-Пт: 10:00-20:00 ; Сб: 10:00-20:00 ; Вс: 10:00-20:00";53.430471;58.9731715;1,2 порядок
ВОЛЖСКО-УРАЛЬСКИЙ;МАГНИТОГОРСК;1-4TFH-63;POS;ИП Мирошина Ольга Романовна;"Мебель(""Каширинский""), ИП Мирошина О.Р., г. Карталы , ул. Братьев Кашириных, д.2/8";;740200844000002;457351, Челябинская обл, Карталинский р-н, Карталы г, Братьев Кашириных ул, д. 2/8;ТК Каширинский магазин Мебель цетральный вход и направо;"Пн-Пт: 10:00-18:00 ; Сб: 10:00-18:00 ; Вс: 10:00-18:00";53.05927;60.634712;1,2 порядок
ВОЛЖСКО-УРАЛЬСКИЙ;МАГНИТОГОРСК;1-4TFH-63;POS;ИП Узоян Гиви Амарович;Мебель, ИП Узоян Г.А., с.Аскарово, ул. 40 лет Октября, д.15;;740200924000001;453620, Башкортостан Респ, Абзелиловский р-н, Аскарово с, 40 лет Октября ул, д. 15;"магазин ""Мебельный-Центр"" на Центральном рынке ""Урожай"" в Аскарово";"Пн-Пт: 09:30-18:00 ; Сб: 09:30-14:00 ; Вс: Выходной";53.3363315;58.5114618;1,2 порядок
ВОЛЖСКО-УРАЛЬСКИЙ;МАГНИТОГОРСК;1-4TFH-63;IPOS;Мобильный офис;NEW mIPos_Сибай_ул. Ленина_9(ТЦ_Адель);;660103452000003;453830, Башкортостан Респ, Сибай г, Ленина ул, д. 9;"ТЦ Адель, 1 этаж, между павильонами ""Агат"" и ""Цветы""";"Пн-Пт: 10:00-19:00 ; Сб: 10:00-19:00 ; Вс: 10:00-19:00";52.7171768;58.666024;1,2 порядок
ВОЛЖСКО-УРАЛЬСКИЙ;МАГНИТОГОРСК;1-4TFH-63;POS;"ООО ""ДНС РИТЕЙЛ""";"ДНС, ООО ""ДНС Ритейл"", Челябинская область, п. Бреды, ул Ленина, д 21";ЭКСПЕРТ-РИТЕЙЛ;2501015020002858;457310, Челябинская обл, Брединский р-н, Бреды п, Ленина ул, д. 21;"село Бреды ул.Ленина дом 21, магазин ""ДНС"", после входа направо кредитный отдел";"Пн-Пт: 10:00-20:00 ; Сб: 10:00-20:00 ; Вс: 10:00-20:00";52.4234835;60.3253984;1,2 порядок
ВОЛЖСКО-УРАЛЬСКИЙ;НИЖНИЙ НОВГОРОД;1-4TFH-37;POS;;"14-09 ООО ""Ситилинк""  г. Нижний Новгород, ул Коминтерна 11 Офлайн";;770103914015111;603157, Нижегородская обл, Нижний Новгород г, Коминтерна ул, д. 11;ост. Варя, ТЦ Лента;"Пн-Пт: 09:00-21:00 ; Сб: 09:00-21:00 ; Вс: 09:00-21:00";56.3390795;43.8833698;1,2 порядок
ВОЛЖСКО-УРАЛЬСКИЙ;НИЖНИЙ НОВГОРОД;1-4TFH-37;POS;"Шахунское ПО ""Коопунивермаг""";"КООПУНИВЕРМАГ_Шахунское ПО ""Коопунивермаг""_Шахунья г, Гагарина ул, дом 17";;520101906000003;606910, Нижегородская обл, Шахунья г, Гагарина ул, д. 17;рядом с пл. Советской , через дорогу от администрации;"Пн-Пт: 09:00-18:00 ; Сб: 09:00-15:00 ; Вс: 09:00-15:00";57.6757587;46.6116038;1,2 порядок
ВОЛЖСКО-УРАЛЬСКИЙ;НИЖНИЙ НОВГОРОД;1-4TFH-37;POS;ИП Ершов М.Н.;МЕБЕЛЬ ЕРШОВ Кулебаки;;520100616000003;607015, Нижегородская обл, Кулебакский р-н, Кулебаки г, Циолковского ул, д. 18;Мебельный ТЦ, на пересечении ул. Песочная и Циалковского;"Пн-Пт: 09:00-19:00 ; Сб: 09:00-19:00 ; Вс: 09:00-19:00";55.4284467;42.5067405;1,2 порядок
ВОЛЖСКО-УРАЛЬСКИЙ;НИЖНИЙ НОВГОРОД;1-4TFH-37;POS;;Кронар_Нижний Новгород, пр. Гагарина, д.29;;770103914015066;603057, Нижегородская обл, Нижний Новгород г, Гагарина пр-кт, д. 29;рядом с Дворцом спорта;"Пн-Пт: 09:00-19:00 ; Сб: 09:00-19:00 ; Вс: 09:00-19:00";56.293187;43.977797;1,2 порядок
ВОЛЖСКО-УРАЛЬСКИЙ;НИЖНИЙ НОВГОРОД;1-4TFH-37;POS;ИП Сибирякова Елена Николаевна;ШАХУНЬЯ_ИП Сибирякова Е.Н._Шахунья г, Советская ул, дом 13;;520100882000002;606910, Нижегородская обл, Шахунья г, Советская ул, д. 13;ТЦ Континент, 1 этаж, магазин мебели ИП Сибирякова;"Пн-Пт: 09:00-18:00 ; Сб: 09:00-15:00 ; Вс: 09:00-15:00";57.6744727;46.6062228;1,2 порядок
ВОЛЖСКО-УРАЛЬСКИЙ;НИЖНИЙ НОВГОРОД;1-4TFH-37;POS;;"14-09 СИТИЛИНК, ООО ""Ситилинк""  Нижегородская область, г. Арзамас, пр-кт Ленина 200 Б (оффлайн)";;770103914015135;607228, Нижегородская обл, Арзамас г, Ленина пр-кт, д. 200Б;не указано;"Пн-Пт: 09:00-21:00 ; Сб: 09:00-21:00 ; Вс: 09:00-21:00";55.4019113;43.8362334;1,2 порядок
ВОЛЖСКО-УРАЛЬСКИЙ;НИЖНИЙ НОВГОРОД;1-4TFH-37;POS;"ООО ""ДНС РИТЕЙЛ""";"14-09 ДНС РИТЕЙЛ, ООО ""ДНС РИТЕЙЛ"", 603003, г.Нижний Новгород, ул. Коминтерна, 117";ЭКСПЕРТ-РИТЕЙЛ;2501017340001771;603003, Нижегородская обл, Нижний Новгород г, Коминтерна ул, д. 117;ТЦ Сормовские Зори, цоколь;"Пн-Пт: 09:00-21:00 ; Сб: 09:00-21:00 ; Вс: 09:00-21:00";56.3507377;43.869115;1,2 порядок
ВОЛЖСКО-УРАЛЬСКИЙ;НИЖНИЙ НОВГОРОД;1-4TFH-37;POS;ИП Сибирякова Елена Николаевна;МЕБЕЛЬ_ИП Сибирякова Е.Н_Урень г, Коммунистическая ул, д. 42;;520100882000004;606800, Нижегородская обл, Уренский р-н, Урень г, Коммунистическая ул, д. 42;не указано;"Пн-Пт: 09:00-21:00 ; Сб: 09:00-21:00 ; Вс: 09:00-21:00";57.467262;45.7878474;1,2 порядок
ВОЛЖСКО-УРАЛЬСКИЙ;НИЖНИЙ НОВГОРОД;;POS;"ООО ""БА ФИНАНС""";Леруа Мерлен БА ФИНАНС г Нижний Новгород Московское шоссе 352 К;DIRECT CREDIT 2015;770106619000063;603092, Нижегородская обл, Нижний Новгород г, Московское ш, д. 352К;не указано;"Пн-Пт: 09:00-21:00 ; Сб: 09:00-21:00 ; Вс: 09:00-21:00";56.307312;43.771616;1,2 порядок
ВОЛЖСКО-УРАЛЬСКИЙ;НИЖНИЙ ТАГИЛ;1-4TFH-65;POS;"ООО ""СК Трейд""";Снежная королева, СК-Трейд Нижний Тагил, Свердловское шоссе, 31Б;;770104668000130;622001, Свердловская обл, Нижний Тагил г, Свердловское ш, д. 31Б;Торговый центр Депо , центральный вход;"Пн-Пт: 09:00-21:00 ; Сб: 09:00-21:00 ; Вс: 09:00-21:00";57.8695485;60.0244835;1,2 порядок
ВОЛЖСКО-УРАЛЬСКИЙ;НИЖНИЙ ТАГИЛ;1-4TFH-65;POS;ИП Ермени Д.М.;Стройкомфорт, ИП Ермени Д.М., Нижний Тагил г, Уральская ул, д. 11;;660201284000002;622001, Свердловская обл, Нижний Тагил г, Уральская ул, д. 11;не указано;"Пн-Пт: 09:00-18:00 ; Сб: Выходной ; Вс: Выходной";57.9061884;59.9564256;3 порядок
ВОЛЖСКО-УРАЛЬСКИЙ;НИЖНИЙ ТАГИЛ;1-4TFH-65;POS;"ООО ""ДНС РИТЕЙЛ""";"ДНС, ООО ""ДНС РИТЕЙЛ"", г. Карпинск г, Мира ул, дом 46";;2501015010001455;624930, Свердловская обл, Карпинск г, Мира ул, д. 46;цент  города;"Пн-Пт: 10:00-20:00 ; Сб: 10:00-20:00 ; Вс: 10:00-20:00";59.7679223;59.9973042;1,2 порядок
ВОЛЖСКО-УРАЛЬСКИЙ;НИЖНИЙ ТАГИЛ;1-4TFH-65;POS;"ООО ""ДНС РИТЕЙЛ""";ДНС, ООО ДНС Ритейл, Нижний Тагил г, Зари ул, д. 21;ЭКСПЕРТ-РИТЕЙЛ;2501015020003552;622052, Свердловская обл, Нижний Тагил г, Зари ул, д. 21;Дзержинский район, остановка Пихтовые горы;"Пн-Пт: 09:00-21:00 ; Сб: 09:00-21:00 ; Вс: 09:00-21:00";57.9155815;60.1381577;1,2 порядок
ВОЛЖСКО-УРАЛЬСКИЙ;НИЖНИЙ ТАГИЛ;1-4TFH-65;POS;"ООО ""ДНС РИТЕЙЛ""";"ДНС, ООО ""ДНС РИТЕЙЛ"",г. Качканар, ул. Гикалова 7Б";;250101501000232;624351, Свердловская обл, Качканар г, Гикалова ул, д. 7Б;ТЦ Восток, 2 этаж;"Пн-Пт: 09:00-21:00 ; Сб: 09:00-21:00 ; Вс: 09:00-21:00";58.6900957;59.4860737;1,2 порядок
ВОЛЖСКО-УРАЛЬСКИЙ;НИЖНИЙ ТАГИЛ;1-4TFH-65;POS;"ООО ""ДНС РИТЕЙЛ""";"ДНС, ООО ""ДНС РИТЕЙЛ"",г Краснотурьинск, ул. Попова, д.64";;250101501000234;624440, Свердловская обл, Краснотурьинск г, Попова ул, д. 64;На 1 этаже пятиэтажного жилого дома;"Пн-Пт: 10:00-21:00 ; Сб: 10:00-21:00 ; Вс: 10:00-21:00";59.7664346;60.2030551;1,2 порядок
ВОЛЖСКО-УРАЛЬСКИЙ;НИЖНИЙ ТАГИЛ;1-4TFH-65;POS;"ООО ""ДНС РИТЕЙЛ""";ДНС, ООО ДНС Ритейл, Нижний Тагил г, Вагоностроителей пр-кт, д. 26а;ЭКСПЕРТ-РИТЕЙЛ;2501015020002102;622007, Свердловская обл, Нижний Тагил г, Вагоностроителей пр-кт, д. 26а;"КРЦ "" РОССИЯ"", 1 ЭТАЖ";"Пн-Пт: 09:00-21:00 ; Сб: 09:00-21:00 ; Вс: 09:00-21:00";57.9185725;60.114418;1,2 порядок
ВОЛЖСКО-УРАЛЬСКИЙ;НИЖНИЙ ТАГИЛ;1-4TFH-65;POS;ИП Кондратьева Е.А.;vk.com/obstanovochka_salda, ИП Кондратьева Е.А., Верхняя Салда г, Воронова ул, д. 4, кор. 1;;660201275000003;624766, Свердловская обл, Верхняя Салда г, Воронова ул, д. 4, кор. 1;не указано;"Пн-Пт: 09:00-21:00 ; Сб: 09:00-21:00 ; Вс: 09:00-21:00";58.050859;60.5774141;3 порядок
ВОЛЖСКО-УРАЛЬСКИЙ;НИЖНИЙ ТАГИЛ;1-4TFH-65;POS;"ООО ""ДНС РИТЕЙЛ""";ДНС, ООО ДНС Ритейл, Нижняя Тура г, Ленина ул, д. 123;ЭКСПЕРТ-РИТЕЙЛ;2501015020002698;624220, Свердловская обл, Нижняя Тура г, Ленина ул, д. 123;ТЦ 77;"Пн-Пт: 09:00-21:00 ; Сб: 09:00-21:00 ; Вс: 09:00-21:00";58.6325281;59.8100107;1,2 порядок
ВОЛЖСКО-УРАЛЬСКИЙ;НИЖНИЙ ТАГИЛ;1-4TFH-65;POS;"ООО ""ДНС РИТЕЙЛ""";ДНС, ООО ДНС Ритейл, Кушва г, Строителей ул, д. 9;ЭКСПЕРТ-РИТЕЙЛ;2501015020002697;624300, Свердловская обл, Кушва г, Строителей ул, д. 9;центральная площадь;"Пн-Пт: 09:00-21:00 ; Сб: 09:00-21:00 ; Вс: 09:00-21:00";58.2837043;59.7680249;1,2 порядок
ВОЛЖСКО-УРАЛЬСКИЙ;НИЖНИЙ ТАГИЛ;1-4TFH-65;POS;"ООО ""ДНС РИТЕЙЛ""";"14-09 ДНС, ООО ""ДНС РИТЕЙЛ"", г. Североуральск, ул.Молодежная, д.11";ЭКСПЕРТ-РИТЕЙЛ;2501015020001678;624480, Свердловская обл, Североуральск г, Молодежная ул, д. 11;центральная площадь;"Пн-Пт: 09:00-21:00 ; Сб: 09:00-21:00 ; Вс: 09:00-21:00";60.1515253;59.9504001;1,2 порядок
ВОЛЖСКО-УРАЛЬСКИЙ;НИЖНИЙ ТАГИЛ;1-4TFH-65;POS;"ООО ""ДНС РИТЕЙЛ""";"ДНС ТРЦ ""Россия"", ООО ДНС РИТЕЙЛ"", Нижний Тагил, Вагоностроителей, д. 26 А";;250101501000242;622051, Свердловская обл, Нижний Тагил г, Вагоностроителей пр-кт, д. 26А;"КРЦ "" РОССИЯ"", 1 ЭТАЖ";"Пн-Пт: 09:00-21:00 ; Сб: 09:00-21:00 ; Вс: 09:00-21:00";57.9185725;60.114418;1,2 порядок
ВОЛЖСКО-УРАЛЬСКИЙ;НИЖНИЙ ТАГИЛ;1-4TFH-65;POS;"ООО ""ДНС РИТЕЙЛ""";"ДНС, ООО ""ДНС РИТЕЙЛ"", г.Серов, ул. Заславского 29";ЭКСПЕРТ-РИТЕЙЛ;250101502000175;624980, Свердловская обл, Серов г, Заславского ул, д. 29;"ТЦ ""Детский мир, 1 этаж";"Пн-Пт: 09:00-21:00 ; Сб: 09:00-21:00 ; Вс: 09:00-21:00";59.604176;60.5727561;1,2 порядок
ВОЛЖСКО-УРАЛЬСКИЙ;НИЖНИЙ ТАГИЛ;1-4TFH-65;POS;"ООО ""ДНС РИТЕЙЛ""";ДНС, ООО ДНС Ритейл, Красноуральск г, Ленина ул, д.21;ЭКСПЕРТ-РИТЕЙЛ;2501015020002864;624330, Свердловская обл, Красноуральск г, Ленина ул, д. 21;"Магазин ""Пятерочка"" 1 этаж";"Пн-Пт: 09:00-21:00 ; Сб: 09:00-21:00 ; Вс: 09:00-21:00";58.3573357;60.0383993;1,2 порядок
ВОЛЖСКО-УРАЛЬСКИЙ;НИЖНИЙ ТАГИЛ;1-4TFH-65;POS;"ООО ""ДНС РИТЕЙЛ""";"14-09 ДНС ТЦ Небо, ООО ""ДНС РИТЕЙЛ"",Серов г, Ленина ул, дом 215";ЭКСПЕРТ-РИТЕЙЛ;2501015020002113;624992, Свердловская обл, Серов г, Ленина ул, д. 215;"ТЦ ""Небо"",1 этаж";"Пн-Пт: 10:00-21:00 ; Сб: 10:00-21:00 ; Вс: 10:00-21:00";59.6075252;60.6111707;1,2 порядок
ВОЛЖСКО-УРАЛЬСКИЙ;НОВЫЙ УРЕНГОЙ;2-25EF3XB;POS;ИП Халиуллин Радик Фирдинантович;"Мебельный салон ""Алиса"" ИП Халиуллин Р.Ф. , г. Надым , проезд 1";;890100041000001;629730, Ямало-Ненецкий АО, Надым г, 1-й проезд, д. 1;"Магазин ""Алиса"", 1 этаж";"Пн-Пт: 10:00-19:00 ; Сб: 10:00-19:00 ; Вс: 10:00-19:00";65.5388038;72.5187992;1,2 порядок
ВОЛЖСКО-УРАЛЬСКИЙ;НОВЫЙ УРЕНГОЙ;2-25EF3XB;POS;"ООО ""ДНС РИТЕЙЛ""";"14-09 ДНС Брокер УП, ООО ""ДНС РИТЕЙЛ"", Надым г, 2-й проезд, д. 9";ЭКСПЕРТ-РИТЕЙЛ;2501017340002251;629736, Ямало-Ненецкий АО, Надым г, 2-й проезд, д. 9;1 этаж;"Пн-Пт: 10:00-20:30 ; Сб: 10:00-20:30 ; Вс: 10:00-20:30";65.5361944;72.530225;1,2 порядок
ВОЛЖСКО-УРАЛЬСКИЙ;НОВЫЙ УРЕНГОЙ;2-25EF3XB;POS;"ООО ""ДНС РИТЕЙЛ""";"ДНС Брокер УП,ООО ""ДНС Ритейл""Ямало-Ненецкий автономный округ, г.Новый Уренгой,пр. Губкина, д. 5";ЭКСПЕРТ-РИТЕЙЛ;2501017340001061;629300, Ямало-Ненецкий ао, Новый Уренгой г, Губкина пр-кт, д. 5;" ТЦ ""Вертолет"", 1 этаж";"Пн-Пт: 10:00-20:30 ; Сб: 10:00-20:30 ; Вс: 10:00-20:30";66.091454;76.6751311;1,2 порядок
ВОЛЖСКО-УРАЛЬСКИЙ;НОВЫЙ УРЕНГОЙ;;POS;"ООО ""ДНС РИТЕЙЛ""";"14-09 ДНС Брокер УП, ООО ""ДНС РИТЕЙЛ"", Салехард г, Ямальская ул, д. 9, кор. Б";ЭКСПЕРТ-РИТЕЙЛ;2501017340002211;629001, Ямало-Ненецкий АО, Салехард г, Ямальская ул, д. 96;ТЦ Сезам , 1 этаж.;"Пн-Пт: 10:00-20:00 ; Сб: 10:00-20:00 ; Вс: 10:00-20:00";;;1,2 порядок
ВОЛЖСКО-УРАЛЬСКИЙ;НОВЫЙ УРЕНГОЙ;;POS;"ООО ""ДНС РИТЕЙЛ""";"14-09 ДНС Брокер УП, ООО ""ДНС РИТЕЙЛ"", Тарко-Сале г, Им Е.К.Колесниковой ул, д. 2";ЭКСПЕРТ-РИТЕЙЛ;2501017340002209;629851, Ямало-Ненецкий ао, Пуровский р-н, Тарко-Сале г, Им Е.К.Колесниковой ул, д. 2 д;"ТЦ"" Дом Быта"", 1 этаж";"Пн-Пт: 10:00-20:30 ; Сб: 10:00-20:30 ; Вс: 10:00-20:30";;;1,2 порядок
ВОЛЖСКО-УРАЛЬСКИЙ;НОВЫЙ УРЕНГОЙ;;POS;"ООО ""ДНС РИТЕЙЛ""";"14-09 ДНС Брокер УП, ООО ""ДНС РИТЕЙЛ"", Новый Уренгой г, Северная Коммунальная Зона мкр, д. 4";ЭКСПЕРТ-РИТЕЙЛ;2501017340002210;629303, Ямало-Ненецкий ао, Новый Уренгой г, Северная Коммунальная Зона мкр, д. 4 д;"ТЦ ""Бумеранг"", 2 этаж";"Пн-Пт: 10:00-20:30 ; Сб: 10:00-20:30 ; Вс: 10:00-20:30";66.1250547;76.6757504;1,2 порядок
ВОЛЖСКО-УРАЛЬСКИЙ;ОРЕНБУРГ;1-4TFH-25;POS;"ООО ""ДНС РИТЕЙЛ""";"14-09 ДНС БРОКЕР, ООО ""ДНС РИТЕЙЛ""  Оренбургская обл, Ташлинский р-н, Ташла с, Довженко ул, 30 д.";ЭКСПЕРТ-РИТЕЙЛ;2501015020003111;461170, Оренбургская обл, Ташлинский р-н, Ташла с, Довженко ул, д. 30;Магазин ДНС кредитный отдел;"Пн-Пт: 09:00-21:00 ; Сб: 09:00-21:00 ; Вс: 09:00-21:00";51.7673155;52.7492489;1,2 порядок
ВОЛЖСКО-УРАЛЬСКИЙ;ОРЕНБУРГ;1-4TFH-25;POS;"ООО ""ДНС РИТЕЙЛ""";"14-09 ДНС,ООО ""ДНС РИТЕЙЛ""   Оренбургская обл, Гай г, Орская ул, 111б д., 9 корп.";ЭКСПЕРТ-РИТЕЙЛ;2501015020002664;462633, Оренбургская обл, Гай г, Орская ул, д. 111 б, кор. 9;Гайский рынок, магазин ДНС;"Пн-Пт: 10:00-22:00 ; Сб: 10:00-22:00 ; Вс: 10:00-22:00";51.4593054;58.446215;1,2 порядок
ВОЛЖСКО-УРАЛЬСКИЙ;ОРЕНБУРГ;1-4TFH-25;POS;"ООО ""ДНС РИТЕЙЛ""";14-09 ДНС, Толбазы Ленина;ЭКСПЕРТ-РИТЕЙЛ;2501015020001689;453480, Башкортостан Респ, Аургазинский р-н, Толбазы с, Ленина ул, д. 36;Толбазы с, 2 ЭТАЖ;"Пн-Пт: 10:00-20:00 ; Сб: 10:00-20:00 ; Вс: 10:00-20:00";54.025134;55.885083;1,2 порядок
ВОЛЖСКО-УРАЛЬСКИЙ;ОРЕНБУРГ;1-4TFH-25;POS;"ООО ""ДНС РИТЕЙЛ""";"ДНС, ООО ""ДНС РИТЕЙЛ"", г.Салават, ул. Ленина, д.42";ЭКСПЕРТ-РИТЕЙЛ;250101502000939;453260, Башкортостан Респ, Салават г, Ленина ул, д. 42;Гостиный двор,  1 этаж;"Пн-Пт: 10:00-21:00 ; Сб: 10:00-21:00 ; Вс: 10:00-21:00";53.351289;55.9246457;1,2 порядок
ВОЛЖСКО-УРАЛЬСКИЙ;ОРЕНБУРГ;1-4TFH-25;POS;ИП Фомин А. И.;Техника ИП Фомин А.И. г. Бугуруслан ул. Революционная д.30;;560100717000001;461630, Оренбургская обл, Бугуруслан г, революционная ул, д. 30;Магазин находится рядом со школьным  магазином Светлана.;"Пн-Пт: 10:00-18:00 ; Сб: 10:00-16:00 ; Вс: 10:00-15:00";53.6523371;52.4369442;1,2 порядок
ВОЛЖСКО-УРАЛЬСКИЙ;ОРЕНБУРГ;1-4TFH-25;POS;ИП Мустафина Галина Васильевна;Instagram Avanti, ИП Мустафина Г.В, г.Орск, пр. Ленина д.45;;560102219000002;462400, Оренбургская обл, Орск г, Ленина пр-кт, д. 45;не указано;"Пн-Пт: 10:00-19:00 ; Сб: 10:00-19:00 ; Вс: 10:00-19:00";51.235661;58.4717031;3 порядок
ВОЛЖСКО-УРАЛЬСКИЙ;ОРЕНБУРГ;1-4TFH-25;IPOS;Мобильный офис;NEW mIPos_Оренбург_ул. Новая_4 (ТРК Гулливер);;660103452000032;460022, Оренбургская обл, Оренбург г, Новая ул, д. 4;ТРК Гулливер, вход любой. Расположение стойки на 1 этаже ТРК , возле водопада.;"Пн-Пт: 10:00-19:00 ; Сб: 10:00-19:00 ; Вс: 10:00-19:00";51.8103243;55.0936029;1,2 порядок
ВОЛЖСКО-УРАЛЬСКИЙ;ОРЕНБУРГ;1-4TFH-25;POS;"ООО ""ДНС РИТЕЙЛ""";"14-09 ДНС БРОКЕР, ООО ""ДНС РИТЕЙЛ"" ОРЕНБУРГСКАЯ ОБЛ, С ТОЦКОЕ, УЛ ТЕРЕШКОВОЙ, Д. 5Л";ЭКСПЕРТ-РИТЕЙЛ;2501015020003268;461131, Оренбургская обл, Тоцкий р-н, Тоцкое с, Терешковой ул, д. 5Л;В здании магазина Магнит на 2 этаже;"Пн-Пт: 09:00-18:00 ; Сб: 09:00-18:00 ; Вс: 09:00-18:00";52.5268143;52.7451071;1,2 порядок
ВОЛЖСКО-УРАЛЬСКИЙ;ОРЕНБУРГ;1-4TFH-25;IPOS;Мобильный офис;NEW IPOS_Бузулук_ул. Комсомольская_81 (ТРЦ Север);;660103452000033;461040, Оренбургская обл, Бузулук г, Комсомольская ул, д. 81;ТЦ СЕВЕР, 1 этаж около фантана.;"Пн-Пт: 10:00-21:00 ; Сб: 10:00-21:00 ; Вс: 10:00-21:00";52.7884832;52.2638681;1,2 порядок
ВОЛЖСКО-УРАЛЬСКИЙ;ОРЕНБУРГ;1-4TFH-25;POS;"ООО ""ДНС РИТЕЙЛ""";"ДНС, ООО ""ДНС РИТЕЙЛ"", г. Кумертау ул. Бабаевская  16";ЭКСПЕРТ-РИТЕЙЛ;250101502000937;453303, Башкортостан Респ, Кумертау г, Бабаевская ул, д. 16;ТЦ Кумертау, 2 этаж;"Пн-Пт: 10:00-20:00 ; Сб: 10:00-20:00 ; Вс: 10:00-20:00";52.7650441;55.8077377;1,2 порядок
ВОЛЖСКО-УРАЛЬСКИЙ;ОРЕНБУРГ;1-4TFH-25;POS;"ООО ""ДНС РИТЕЙЛ""";"ДНС, ООО ""ДНС РИТЕЙЛ"", г. Новотроицк, ул. Советская, дом 116 Б";ЭКСПЕРТ-РИТЕЙЛ;250101502000898;462354, Оренбургская обл, Новотроицк г, Советская ул, д. 116Б;ТЦ Кит 2 этаж;"Пн-Пт: 10:00-20:00 ; Сб: 10:00-20:00 ; Вс: 10:00-20:00";51.191862;58.284187;1,2 порядок
ВОЛЖСКО-УРАЛЬСКИЙ;ОРЕНБУРГ;1-4TFH-25;POS;ИП Губайдуллин Р.Р.;Альфа;;020200209000001;453380, Башкортостан Респ, Зианчуринский р-н, Исянгулово с, Октябрьской Революции ул, д. 2;Магазин Альфа,  напротив здания ЗАГСА;"Пн-Пт: 09:00-19:00 ; Сб: 09:00-17:00 ; Вс: Выходной";;;1,2 порядок
ВОЛЖСКО-УРАЛЬСКИЙ;ОРЕНБУРГ;1-4TFH-25;POS;ИП Проскурякова Анжелика Викторовна;Дом Мебели_ИП Проскурякова А.В._Сорочинск г, Фурманова ул, дом 18;;560101538000002;461904, Оренбургская обл, Сорочинск г, Фурманова ул, д. 18;Находится рядом с ТЦ Муравей;"Пн-Пт: 10:00-18:00 ; Сб: 10:00-18:00 ; Вс: 10:00-18:00";52.4121986;53.161511;1,2 порядок
ВОЛЖСКО-УРАЛЬСКИЙ;ОРЕНБУРГ;1-4TFH-25;POS;"ООО ""ДНС РИТЕЙЛ""";"14-09 ДНС, ООО ""ДНС РИТЕЙЛ"", с. Исянгулово, ул. Советская, д. 15";ЭКСПЕРТ-РИТЕЙЛ;2501015020002902;453380, Башкортостан Респ, Зианчуринский р-н, Исянгулово с, Советская ул, д. 15;Центр села,  2 этаж;"Пн-Пт: 10:00-18:00 ; Сб: 10:00-18:00 ; Вс: 10:00-18:00";52.1947965;56.5746642;1,2 порядок
ВОЛЖСКО-УРАЛЬСКИЙ;ОРЕНБУРГ;1-4TFH-25;POS;ИП Блиялкина Асель Байкельдовна;Народный в ЛенКоме, ИП Блиялкина А.Б., г. Орск, ул.Ленинского Комсомола д.43;;560102207000001;462400, Оренбургская обл, Орск г, Ленинского Комсомола ул, д. 43;ТЦ Ленком, 2 этаж;"Пн-Пт: 10:00-19:00 ; Сб: 10:00-19:00 ; Вс: 10:00-19:00";51.2252011;58.4729821;1,2 порядок
ВОЛЖСКО-УРАЛЬСКИЙ;ОРЕНБУРГ;1-4TFH-25;POS;"ООО ""ДНС РИТЕЙЛ""";"ДНС, ООО ""ДНС РИТЕЙЛ"",г.Новотроицк, ул.Советская,43В, 2 этаж";ЭКСПЕРТ-РИТЕЙЛ;250101502000899;462354, Оренбургская обл, Новотроицк г, Советская ул, д. 43В;2 этаж;"Пн-Пт: 10:00-20:00 ; Сб: 10:00-20:00 ; Вс: 10:00-20:00";51.195728;58.312951;1,2 порядок
ВОЛЖСКО-УРАЛЬСКИЙ;ОРЕНБУРГ;1-4TFH-25;POS;"ООО ""ДНС РИТЕЙЛ""";14-09 ДНС РИТЕЙЛ, ООО ДНС РИТЕЙЛ,  г. Сорочинск, ул. Фурманова, д. 18;ЭКСПЕРТ-РИТЕЙЛ;2501015020002004;461904, Оренбургская обл, Сорочинск г, Фурманова ул, д. 18;Находится рядом с ТЦ Муравей;"Пн-Пт: 10:00-20:00 ; Сб: 10:00-20:00 ; Вс: 10:00-20:00";;;1,2 порядок
ВОЛЖСКО-УРАЛЬСКИЙ;ОРЕНБУРГ;1-4TFH-25;POS;"ООО ""ДНС РИТЕЙЛ""";14-09 ДНС, ООО ДНС РИТЕЙЛ Оренбургская обл, Соль-Илецк г, Оренбургская ул, д. 14;ЭКСПЕРТ-РИТЕЙЛ;2501015020001660;461505, Оренбургская обл, Соль-Илецкий р-н, Соль-Илецк г, Оренбургская ул, д. 14;Оренбургская улица, магазин ДНС, 1 этаж, кредитный отдел;"Пн-Пт: 10:00-20:00 ; Сб: 10:00-20:00 ; Вс: 10:00-20:00";51.1556053;54.9979923;1,2 порядок
ВОЛЖСКО-УРАЛЬСКИЙ;ОРЕНБУРГ;1-4TFH-25;POS;"ООО ""ДНС РИТЕЙЛ""";"ДНС, ООО ""ДНС РИТЕЙЛ"",  г.Ишимбай, ул. Стахановская, д.92";ЭКСПЕРТ-РИТЕЙЛ;250101502000936;453215, Башкортостан Респ, Ишимбайский р-н, Ишимбай г, Стахановская ул, д. 92;ТРЦ Ишимбай. 1 ЭТАЖ;"Пн-Пт: 10:00-20:00 ; Сб: 10:00-20:00 ; Вс: 10:00-20:00";53.4495637;56.0376471;1,2 порядок
ВОЛЖСКО-УРАЛЬСКИЙ;ОРЕНБУРГ;1-4TFH-25;POS;"ООО ""ДНС РИТЕЙЛ""";"14-09 ""ДНС, ООО """"ДНС РИТЕЙЛ"""", Оренбург  С ИЛЕК, УЛ КОМСОМОЛЬСКАЯ, Д. 48, КОРП. А";ЭКСПЕРТ-РИТЕЙЛ;2501015020002776;461350, Оренбургская обл, Илекский р-н, Илек с, Комсомольская ул, д. 48, кор. А;магазин ДНС;"Пн-Пт: 09:00-18:00 ; Сб: 09:00-18:00 ; Вс: 09:00-18:00";51.524166;53.373043;1,2 порядок
ВОЛЖСКО-УРАЛЬСКИЙ;ОРЕНБУРГ;1-4TFH-25;POS;ИП Сабиров С.С.;Заказ/БТ_ИП Сабиров С.С._г.Кумертау_ул.Карла Маркса,5;;020200324000011;453300, Башкортостан Респ, Кумертау г, Комсомольская ул, д. 19;Торговый Центр ЗАКАЗ , 2 этаж;"Пн-Пт: 10:00-19:00 ; Сб: 10:00-18:00 ; Вс: 10:00-18:00";;;1,2 порядок
ВОЛЖСКО-УРАЛЬСКИЙ;ОРЕНБУРГ;1-4TFH-25;POS;"ООО ""ДНС РИТЕЙЛ""";"14-09 ДНС БРОКЕР, ООО ""ДНС РИТЕЙЛ"" Башкортостан Респ, Салават г, Уфимская ул, 30А/1 д., 2 корп.";ЭКСПЕРТ-РИТЕЙЛ;2501015020003337;453252, Башкортостан Респ, Салават г, Уфимская ул, д. 30А/1, кор. 2;Центральный рынок, магазин ДНС, 1 этаж;"Пн-Пт: 09:00-21:00 ; Сб: 09:00-21:00 ; Вс: 09:00-21:00";53.3738801;55.9236637;1,2 порядок
ВОЛЖСКО-УРАЛЬСКИЙ;ОРЕНБУРГ;1-4TFH-25;POS;ИП Медведева Ю.А.;Наше золото - Новотроицк, ИП Медведева Ю.А Новотроицк г. Комарова ул.,д 9А;;630103450000011;462360, Оренбургская обл, Новотроицк г, Комарова ул, д. 9А;не указано;"Пн-Пт: 10:00-20:00 ; Сб: 10:00-20:00 ; Вс: 10:00-20:00";51.1994196;58.2989763;3 порядок
ВОЛЖСКО-УРАЛЬСКИЙ;ОРЕНБУРГ;1-4TFH-25;POS;"ООО ""ДНС РИТЕЙЛ""";14-09 ДНС БРОКЕР ООО ДНС Ритейл Оренбургская обл, Новотроицк г, Советская ул, 77 д.;ЭКСПЕРТ-РИТЕЙЛ;2501015020002774;462363, Оренбургская обл, Новотроицк г, Советская ул, д. 77;магазин ДНС;"Пн-Пт: 10:00-20:00 ; Сб: 10:00-20:00 ; Вс: 10:00-20:00";51.192145;58.2944558;1,2 порядок
ВОЛЖСКО-УРАЛЬСКИЙ;ОРЕНБУРГ;1-4TFH-25;POS;"ООО ""ДНС РИТЕЙЛ""";"14-09 ""ДНС, ООО """"ДНС РИТЕЙЛ"""", Оренбургская обл, Переволоцкий п, Ленинская ул, 104";ЭКСПЕРТ-РИТЕЙЛ;2501015020002816;461261, Оренбургская обл, Переволоцкий р-н, Переволоцкий п, Ленинская ул, д. 104;магазин ДНС;"Пн-Пт: 10:00-19:00 ; Сб: 10:00-19:00 ; Вс: 10:00-19:00";51.8726775;54.2059584;1,2 порядок
ВОЛЖСКО-УРАЛЬСКИЙ;ОРЕНБУРГ;1-4TFH-25;POS;ИП Тургунов Арсен Маралович;Народный в СТС ИП Тургунов А.М., г. Орск, пр. Ленина/ул. Волкова д. 132/9;;560101731000001;462430, Оренбургская обл, Орск г, Ленина ул, д. 132;Магазин СТС сити 2 этаж;"Пн-Пт: 10:00-19:00 ; Сб: 10:00-19:00 ; Вс: 10:00-19:00";51.2019738;58.5692774;1,2 порядок
ВОЛЖСКО-УРАЛЬСКИЙ;ОРЕНБУРГ;1-4TFH-25;POS;"ООО ""ДНС РИТЕЙЛ""";"ДНС, ООО ""ДНС РИТЕЙЛ"", Оренбург, Советская, д. 31, цокольный этаж";ЭКСПЕРТ-РИТЕЙЛ;250101502000890;460000, Оренбургская обл, Оренбург г, Советская ул, д. 31;рядом с магазином ЗОЛОТАЯ СЕРЕДИНА;"Пн-Пт: 10:00-21:00 ; Сб: 10:00-21:00 ; Вс: 10:00-21:00";51.7662534;55.0983919;1,2 порядок
ВОЛЖСКО-УРАЛЬСКИЙ;ОРЕНБУРГ;1-4TFH-25;POS;"ООО ""ДНС РИТЕЙЛ""";"14-09ДНС, ООО ""ДНС РИТЕЙЛ"" ОРЕНБУРГСКАЯ ОБЛ, Г ОРСК, ПР-КТ ОРСКИЙ, Д. 7А";ЭКСПЕРТ-РИТЕЙЛ;2501015020002844;462432, Оренбургская обл, Орск г, Орский пр-кт, д. 7А;ОЗТП;"Пн-Пт: 10:00-20:00 ; Сб: 10:00-20:00 ; Вс: 10:00-20:00";51.2267275;58.6248492;1,2 порядок
ВОЛЖСКО-УРАЛЬСКИЙ;ОРЕНБУРГ;1-4TFH-25;POS;"ООО ""ДНС РИТЕЙЛ""";"ДНС, ООО ""ДНС РИТЕЙЛ"", г.Оренбург, пр. Гагарина, д. 29/2";ЭКСПЕРТ-РИТЕЙЛ;250101502000887;460051, Оренбургская обл, Оренбург г, Гагарина пр-кт, д. 29/2;За остановкой ТЦ Чайка, центральная дверь;"Пн-Пт: 11:00-20:00 ; Сб: 11:00-20:00 ; Вс: 11:00-20:00";51.7739059;55.1851803;1,2 порядок
ВОЛЖСКО-УРАЛЬСКИЙ;ОРЕНБУРГ;1-4TFH-25;POS;ИП Гладникова Альбина Хамитовна;Бытовая техника ИП Гладникова А.Х г. Абдулино ул. Коммунистическая д.288;;560102263000001;461744, Оренбургская обл, Абдулинский р-н, Абдулино г, Коммунистическая ул, д. 288;Центр города здание Ростелокома.;"Пн-Пт: 10:00-18:00 ; Сб: 10:00-18:00 ; Вс: Выходной";53.690327;53.6463403;1,2 порядок
ВОЛЖСКО-УРАЛЬСКИЙ;ОРЕНБУРГ;1-4TFH-25;POS;ИП Щелканова Галина Алексеевна;Информационный центр_Щелканова Г.А._п. Саракташ, ул. Маяковского, д.60 А;;560101770000001;462100, Оренбургская обл, Саракташский р-н, Саракташ п, Маяковского ул, д. 60А;не указано;"Пн-Пт: 09:00-19:00 ; Сб: 09:00-19:00 ; Вс: 09:00-19:00";51.7953792;56.3466189;3 порядок
ВОЛЖСКО-УРАЛЬСКИЙ;ОРЕНБУРГ;1-4TFH-25;POS;"ООО ""ДНС РИТЕЙЛ""";14-09 ДНС, Салават Губкина;ЭКСПЕРТ-РИТЕЙЛ;2501015020001632;453251, Башкортостан Респ, Салават г, Губкина ул, д. 3;Гипермаркет Магнит, 1 этаж;"Пн-Пт: 10:00-21:00 ; Сб: 10:00-21:00 ; Вс: 10:00-21:00";;;1,2 порядок
ВОЛЖСКО-УРАЛЬСКИЙ;ОРЕНБУРГ;1-4TFH-25;POS;"ООО ""ДНС РИТЕЙЛ""";"ДНС, ООО ""ДНС РИТЕЙЛ"", г.Оренбург, пр. Дзержинского, д. 23";ЭКСПЕРТ-РИТЕЙЛ;250101502000885;460009, Оренбургская обл, Оренбург г, Дзержинского пр-кт, д. 23;ТРЦ Север, 0 этаж;"Пн-Пт: 10:00-21:00 ; Сб: 10:00-21:00 ; Вс: 10:00-21:00";51.8333286;55.1288016;1,2 порядок
ВОЛЖСКО-УРАЛЬСКИЙ;ОРЕНБУРГ;1-4TFH-25;POS;"ООО ""ДНС РИТЕЙЛ""";"14-09 ООО ""ДНС РИТЕЙЛ"", Оренбургская обл, Бузулук г, Комсомольская ул, 106, б, 1";ЭКСПЕРТ-РИТЕЙЛ;2501015020002185;461040, Оренбургская обл, Бузулук г, Комсомольская ул, д. 106, кор. б, офис 1;ТЦ Аквариум, центр города;"Пн-Пт: 10:00-21:00 ; Сб: 10:00-21:00 ; Вс: 10:00-21:00";52.7882932;52.2605424;1,2 порядок
ВОЛЖСКО-УРАЛЬСКИЙ;ОРЕНБУРГ;1-4TFH-25;IPOS;Мобильный офис;NEW mIPos_Оренбург_Дзержинского_23(ТЦ  СЕВЕР);;660103452000036;460009, Оренбургская обл, Оренбург г, Дзержинского ул, д. 23;ТРЦ Север, 1 этаж, 4 вход;"Пн-Пт: 11:00-20:00 ; Сб: 11:00-20:00 ; Вс: 11:00-20:00";51.7871133;55.0609886;1,2 порядок
ВОЛЖСКО-УРАЛЬСКИЙ;ОРЕНБУРГ;1-4TFH-25;POS;"ООО ""ДНС РИТЕЙЛ""";"ДНС, ООО ""ДНС РИТЕЙЛ"",Бугуруслан,Революционная,д. 41";ЭКСПЕРТ-РИТЕЙЛ;250101502000895;461630, Оренбургская обл, Бугуруслан г, Революционная ул, д. 41;ТЦ Березка;"Пн-Пт: 10:00-20:00 ; Сб: 10:00-20:00 ; Вс: 10:00-20:00";53.655533;52.4370804;1,2 порядок
ВОЛЖСКО-УРАЛЬСКИЙ;ОРЕНБУРГ;1-4TFH-25;POS;"ООО ""ДНС РИТЕЙЛ""";"ДНС, ООО ""ДНС РИТЕЙЛ"", г.Оренбург, ул.Шарлыкское шоссе 1/2";ЭКСПЕРТ-РИТЕЙЛ;250101502000891;460019, Оренбургская обл, Оренбург г, Шарлыкское ш, д. 1/2;ТЦ Армада 4 галерея;"Пн-Пт: 10:00-18:00 ; Сб: 10:00-18:00 ; Вс: 10:00-18:00";51.84389;55.117706;1,2 порядок
ВОЛЖСКО-УРАЛЬСКИЙ;ОРЕНБУРГ;1-4TFH-25;POS;"ООО ""ДНС РИТЕЙЛ""";14-09 ДНС, Оренбургская обл, Новосергиевский р-н, Новосергиевка п, Калинина пр-кт, 150 ТЦ Успех;ЭКСПЕРТ-РИТЕЙЛ;2501015020002020;461200, Оренбургская обл, Новосергиевский р-н, Новосергиевка п, Калинина пр-кт, д. 150;магазин ДНС;"Пн-Пт: 09:00-18:00 ; Сб: 09:00-18:00 ; Вс: 09:00-18:00";55.6974949;37.5002194;1,2 порядок
ВОЛЖСКО-УРАЛЬСКИЙ;ОРЕНБУРГ;1-4TFH-25;POS;"ООО ""ДНС РИТЕЙЛ""";"14-09 ДНС БРОКЕР, ОО ""ДНС РИТЕЙЛ"" Оренбург г, Братьев Коростелевых пр-кт, 1 д.";ЭКСПЕРТ-РИТЕЙЛ;2501015020003346;460009, Оренбургская обл, Оренбург г, Братьев Коростелевых пр-кт, д. 1;"На территории рынка ""Славянский базар"", главное торговое здание. Главный вход , идти по указателям магазина ДНС. В магазине ""ДНС"" кредитная зона, где находится сотрудник ОТП Банка";"Пн-Пт: 10:00-19:00 ; Сб: 10:00-19:00 ; Вс: 10:00-19:00";51.7850951;55.0770225;1,2 порядок
ВОЛЖСКО-УРАЛЬСКИЙ;ОРЕНБУРГ;1-4TFH-25;POS;"ООО ""ДНС РИТЕЙЛ""";"ДНС, ООО ""ДНС РИТЕЙЛ"", г.Оренбург, ул. Новая, д. 4";ЭКСПЕРТ-РИТЕЙЛ;250101502000886;460050, Оренбургская обл, Оренбург г, Новая ул, д. 4;"ТРК Гулливер, вход любой, 1 этаж, рядом с отделами ""Мегафон ""и ""Золотой""";"Пн-Пт: 12:00-21:00 ; Сб: 12:00-21:00 ; Вс: 12:00-21:00";51.8112311;55.0914698;1,2 порядок
ВОЛЖСКО-УРАЛЬСКИЙ;ОРЕНБУРГ;1-4TFH-25;POS;"ООО ""ДНС РИТЕЙЛ""";"14-09 ДНС БРОКЕР, ООО ""ДНС РИТЕЙЛ""  Оренбургская обл, Оренбург г, Салмышская ул, 71 д.";ЭКСПЕРТ-РИТЕЙЛ;2501015020003059;460060, Оренбургская обл, Оренбург г, Салмышская ул, д. 71;ТЦ КИТ, рядом с магазином Окей;"Пн-Пт: 10:30-20:30 ; Сб: 10:30-20:30 ; Вс: 10:30-20:30";51.8127049;55.1814094;1,2 порядок
ВОЛЖСКО-УРАЛЬСКИЙ;ОРЕНБУРГ;1-4TFH-25;POS;"ООО ""ДНС РИТЕЙЛ""";"ДНС, ООО ""ДНС РИТЕЙЛ"",г.Бузулук,пр. Ленина,д. 53, ТЦ Купец";ЭКСПЕРТ-РИТЕЙЛ;250101502000893;461040, Оренбургская обл, Бузулук г, Ленина ул, д. 53;Напротив Троицкого парка, магазин ДНС;"Пн-Пт: 10:00-21:00 ; Сб: 10:00-21:00 ; Вс: 10:00-21:00";52.7911596;52.2662409;1,2 порядок
ВОЛЖСКО-УРАЛЬСКИЙ;ОРЕНБУРГ;;POS;"ООО ""КРЕДИТНЫЕ СИСТЕМЫ""";14-09 КБМ РБТ г Оренбург ул Пролетарская д 247;КРЕДИТ БРОКЕР МЕНЕДЖМЕНТ;770106821000017;460035, Оренбургская обл, Оренбург г, Пролетарская ул, д. 247;"Здание по ул. Пролетарская , 247. Вход между магазинами ""Магнит Костметик"" и Магазином ""Стройландия"".";"Пн-Пт: 09:00-21:00 ; Сб: 09:00-21:00 ; Вс: 09:00-21:00";51.7985245;55.092595;1,2 порядок
ВОЛЖСКО-УРАЛЬСКИЙ;ПЕНЗА;1-4TFH-26;POS;ИП Никулина А.П.;www.yd58.ru_Уютно Дома_ИП Никулина А.П._пгт. Тамала, Коммунистическая, д.19;КРЕДИТНЫЙ ОТДЕЛ;580101770000002;442900, Пензенская обл, Тамалинский р-н, Тамала рп, Коммунистическая ул, д. 19;не указано;"Пн-Пт: 09:00-21:00 ; Сб: 09:00-21:00 ; Вс: 09:00-21:00";52.542573;43.237163;3 порядок
ВОЛЖСКО-УРАЛЬСКИЙ;ПЕНЗА;1-4TFH-26;POS;ИП Дворянчиков Алексей Анатольевич;Домовой_ИП Дворянчиков А.А._ РМ, г. Краснослободск, Микрорайон-3, д.13, корп. 2, пом.36;;130101453000001;431261, Мордовия Респ, Краснослободский р-н, Краснослободск г, 3-й мкр, д. 13, кор. 2, офис 36;не указано;"Пн-Пт: 09:00-21:00 ; Сб: 09:00-21:00 ; Вс: 09:00-21:00";54.4349924;43.7814607;3 порядок
ВОЛЖСКО-УРАЛЬСКИЙ;ПЕНЗА;1-4TFH-26;POS;ИП Шумилина Ю.С.;Магазин Пластмасса_ИП ШумилинаЮ.С._Тамала рп, Коммунистическая ул, д. 26А;;580101769000002;442900, Пензенская обл, Тамалинский р-н, Тамала рп, Коммунистическая ул, д. 26А;не указано;"Пн-Пт: 09:00-21:00 ; Сб: 09:00-21:00 ; Вс: 09:00-21:00";52.5440651;43.2480788;3 порядок
ВОЛЖСКО-УРАЛЬСКИЙ;ПЕНЗА;1-4TFH-26;POS;"ООО ""ДНС РИТЕЙЛ""";14-09 ДНС Брокер УП ООО ДНС РИТЕЙЛ Мордовия Респ, Ковылкино г, Советская ул, дом 7А, строение 10;ЭКСПЕРТ-РИТЕЙЛ;2501017340001815;431350, Мордовия Респ, Ковылкино г, Советская ул, д. 7А/10;Рядом с ТЦ Купрей, 1 этаж.;"Пн-Пт: 09:00-19:00 ; Сб: 09:00-19:00 ; Вс: 09:00-19:00";54.0384481;43.9192598;1,2 порядок
ВОЛЖСКО-УРАЛЬСКИЙ;ПЕНЗА;1-4TFH-26;POS;ИП Николаев А.В.;БытТехн ИП Николаев А.В. Пятый элемент Сердобск;;580100800000001;442890, Пензенская обл, Сердобский р-н, Сердобск г, Нагорная пл, д. 5;Магазин 5 Элемент в ТЦ Орбина, левый вход, цокольный этаж.;"Пн-Пт: 09:00-18:00 ; Сб: 09:00-18:00 ; Вс: 09:00-18:00";52.4555923;44.2157716;1,2 порядок
ВОЛЖСКО-УРАЛЬСКИЙ;ПЕНЗА;1-4TFH-26;POS;;14-09 СИТИЛИНК ООО Ситилинк Пензенская область, г Кузнецк, ул Белинского, д 2А (офлайн);;770103914016040;442543, Пензенская обл, Кузнецк г, Белинского ул, д. 2А;не указано;"Пн-Пт: 09:00-21:00 ; Сб: 09:00-21:00 ; Вс: 09:00-21:00";53.1204334;46.5477285;3 порядок
ВОЛЖСКО-УРАЛЬСКИЙ;ПЕНЗА;1-4TFH-26;POS;;"Ситилинк, ООО ""Кронар"", г. Кузнецк, ул.Белинского, д. 2А";;770103914016003;442543, Пензенская обл, Кузнецк г, Белинского ул, д. 2А;не указано;"Пн-Пт: 09:00-21:00 ; Сб: 09:00-21:00 ; Вс: 09:00-21:00";53.1204334;46.5477285;3 порядок
ВОЛЖСКО-УРАЛЬСКИЙ;ПЕНЗА;1-4TFH-26;IPOS;Мобильный офис;NEW mIPos_Кузнецк_ул.Гражданская_85(ТЦ СИТИ);;660103452000040;442530, Пензенская обл, Кузнецк г, Гражданская ул, д. 85;Вход в ТЦ Сити с центральной двери . С правой стороны  рядом с экскалотором стойка;"Пн-Пт: 09:00-18:00 ; Сб: 09:00-18:00 ; Вс: 09:00-18:00";53.1260321;46.6011214;1,2 порядок
ВОЛЖСКО-УРАЛЬСКИЙ;ПЕНЗА;1-4TFH-26;POS;ИП Першина Светлана Геннадьевна;магазин  «Мир Техники» ИП Першина Светлана Геннадьевна;;5801320001;442530, Пензенская обл, Кузнецк г, Белинского ул, д. 151;Располоржен в здании 5 этажного жилого дома . Напротив сквер им. Радищева . Рядом Банк Кузнецкий . Центральный отдельный вход;"Пн-Пт: 09:00-18:00 ; Сб: 09:00-15:00 ; Вс: 09:00-15:00";53.1143709;46.5980631;1,2 порядок
ВОЛЖСКО-УРАЛЬСКИЙ;ПЕНЗА;1-4TFH-26;POS;ИП Кучин Алексей Михайлович;Закажи.ру_ИП Кучин А.М._ г.Каменка ул. Чернышевского, 10А;;580101312000002;442246, Пензенская обл, Каменский р-н, Каменка г, Чернышевского ул, д. 10А;ТЦ Слон, вход со стороны ул. Чернышевского;"Пн-Пт: 09:00-17:00 ; Сб: 09:00-17:00 ; Вс: 09:00-17:00";53.1938142;43.9825274;1,2 порядок
ВОЛЖСКО-УРАЛЬСКИЙ;ПЕНЗА;1-4TFH-26;POS;"ООО ""ДНС РИТЕЙЛ""";14-09 ДНС, Сердобск ТЦ Центр-Сити;ЭКСПЕРТ-РИТЕЙЛ;2501015020001762;442895, Пензенская обл, Сердобский р-н, Сердобск г, Ленина ул, д. 110, кор. Б;ТЦ Центр-Сити, 2 этаж;"Пн-Пт: 09:00-21:00 ; Сб: 09:00-21:00 ; Вс: 09:00-21:00";52.4551778;44.2055418;1,2 порядок
ВОЛЖСКО-УРАЛЬСКИЙ;ПЕНЗА;1-4TFH-26;POS;ИП Комлев Александр Михайлович;"Магазин ""Уют""_ИП Комлев А. М._Пензенская обл, Кузнецк г, Белинского ул, д. 142";;580101393000001;442530, Пензенская обл, Кузнецк г, Белинского ул, д. 142;Находится по  улице Белинского напротив центрального рынка, рядом ТЦ ЦУМ - Восход .;"Пн-Пт: 09:00-17:00 ; Сб: 09:00-15:00 ; Вс: 09:00-15:00";53.111324;46.61442;1,2 порядок
ВОЛЖСКО-УРАЛЬСКИЙ;ПЕНЗА;1-4TFH-26;IPOS;Мобильный офис;NEW_mIPos_Пенза_ул.Кирова_73(ТЦ_ЦУМ);;660103452000136;440026, Пензенская обл, Пенза г, Кирова ул, д. 73;ТЦ ЦУМ рядом с центральным рынком, 1 этаж, стойка рядом с отделом Билайн (у лифта);"Пн-Пт: 09:00-21:00 ; Сб: 09:00-21:00 ; Вс: 09:00-21:00";53.1980869;45.0214473;1,2 порядок
ВОЛЖСКО-УРАЛЬСКИЙ;ПЕНЗА;1-4TFH-26;POS;"ООО ""ДНС РИТЕЙЛ""";"14-09 ДНС БРОКЕР, ООО ""ДНС РИТЕЙЛ"" Мордовия, Краснослободск, г, 1-й мкр, дом 2б";ЭКСПЕРТ-РИТЕЙЛ;2501017340002311;431261, Мордовия Респ, Краснослободский р-н, Краснослободск г, 1-й мкр, д. 2Б;Рядом с магазином Фортуна, 1 этаж.;"Пн-Пт: 09:00-21:00 ; Сб: 09:00-21:00 ; Вс: 09:00-21:00";54.4333908;43.7739087;1,2 порядок
ВОЛЖСКО-УРАЛЬСКИЙ;ПЕНЗА;1-4TFH-26;POS;ИП Шумилина Ю.С.;Хороший выбор_ИП Шумилина Ю.С._Тамала рп, Александровский проезд, д. 1;;580101769000001;442900, Пензенская обл, Тамалинский р-н, Тамала рп, Александровский проезд, д. 1;не указано;"Пн-Пт: 09:00-21:00 ; Сб: 09:00-21:00 ; Вс: 09:00-21:00";52.539358;43.212172;3 порядок
ВОЛЖСКО-УРАЛЬСКИЙ;ПЕНЗА;1-4TFH-26;POS;"ООО ""ДНС РИТЕЙЛ""";14-09 ДНС Брокер УП ООО ДНС РИТЕЙЛ Мордовия, г. Саранск, ул. Ботевградская, д. 80;ЭКСПЕРТ-РИТЕЙЛ;2501017340001810;430005, Мордовия Респ, Саранск г, Ботевградская ул, д. 80;ТЦ Ботевград, 1 этаж.;"Пн-Пт: 09:00-20:00 ; Сб: 09:00-20:00 ; Вс: 09:00-20:00";54.1861985;45.1706776;1,2 порядок
ВОЛЖСКО-УРАЛЬСКИЙ;ПЕНЗА;1-4TFH-26;POS;"ООО ""ДНС РИТЕЙЛ""";14-09 ДНС Брокер УП ООО ДНС РИТЕЙЛ Мордовия, г. Саранск, ул. Гагарина, д. 99, корп. А;ЭКСПЕРТ-РИТЕЙЛ;2501017340001808;430027, Мордовия Респ, Саранск г, Гагарина ул, д. 99А;ТЦ Макс (1 этаж);"Пн-Пт: 10:00-21:00 ; Сб: 10:00-21:00 ; Вс: 10:00-21:00";54.1661156;45.1498767;1,2 порядок
ВОЛЖСКО-УРАЛЬСКИЙ;ПЕНЗА;1-4TFH-26;POS;"ООО ""ДНС РИТЕЙЛ""";14-09 ДНС Брокер УП ООО ДНС РИТЕЙЛ Республика Мордовия, Зубова Поляна рп, Советская ул, д 23;ЭКСПЕРТ-РИТЕЙЛ;2501017340002343;431110, Мордовия Респ, Зубово-Полянский р-н, Зубова Поляна рп, Советская ул, д. 23;Здание магазина Магнит, 1 этаж.;"Пн-Пт: 09:00-21:00 ; Сб: 09:00-21:00 ; Вс: 09:00-21:00";54.0761376;42.8370526;1,2 порядок
ВОЛЖСКО-УРАЛЬСКИЙ;ПЕНЗА;1-4TFH-26;POS;ИП Никулина А.П.;Уютнодома_ИП Никулина А.П._р.п.Бессоновка, ул. Центральная 259/7;;580101708000006;442780, Пензенская обл, Бессоновский р-н, Бессоновка с, Центральная ул, д. 259/7;не указано;"Пн-Пт: 09:00-18:00 ; Сб: 09:00-17:00 ; Вс: 09:00-17:00";53.3103653;45.0437837;3 порядок
ВОЛЖСКО-УРАЛЬСКИЙ;ПЕНЗА;1-4TFH-26;POS;"ООО ""ДНС РИТЕЙЛ""";"14-09 ДНС,ООО ""ДНС РИТЕЙЛ""    Пензенская обл, Никольский р-н, Никольск г, Ленина ул, 137";ЭКСПЕРТ-РИТЕЙЛ;2501015020002694;442680, Пензенская обл, Никольский р-н, Никольск г, Ленина ул, д. 137;ТЦ Вершина 2 этаж , напротив площади .;"Пн-Пт: 09:00-20:00 ; Сб: 09:00-19:00 ; Вс: 09:00-19:00";53.7145686;46.081915;1,2 порядок
ВОЛЖСКО-УРАЛЬСКИЙ;ПЕНЗА;1-4TFH-26;POS;ИП Загребина Наталья Викторовна;Магазин Бытовая Техника;;5801096001;442153, Пензенская обл, Нижнеломовский р-н, Нижний Ломов г, Московская ул, д. 60;Магазин техники в центре Ломова, специалисты Банка на 2 этаже здания.;"Пн-Пт: 09:00-19:00 ; Сб: 09:00-18:00 ; Вс: 09:00-17:00";53.5290293;43.6715734;1,2 порядок
ВОЛЖСКО-УРАЛЬСКИЙ;ПЕНЗА;1-4TFH-26;POS;"ООО ""ДНС РИТЕЙЛ""";14-09 ДНС,Каменка г, Чкалова ул, д. 21;ЭКСПЕРТ-РИТЕЙЛ;2501015020001941;442246, Пензенская обл, Каменский р-н, Каменка г, Чкалова ул, д. 21;ТЦ Универмаг, 2 этаж;"Пн-Пт: 09:00-20:00 ; Сб: 09:00-20:00 ; Вс: 09:00-20:00";53.1952164;43.9843909;1,2 порядок
ВОЛЖСКО-УРАЛЬСКИЙ;ПЕНЗА;1-4TFH-26;POS;"ООО ""ДНС РИТЕЙЛ""";"14-09 ДНС,ООО ""ДНС РИТЕЙЛ"" Пенза г, Калинина ул, 93 д.";ЭКСПЕРТ-РИТЕЙЛ;2501015020002928;440052, Пензенская обл, Пенза г, Калинина ул, д. 93;ТЦ Фортуна, район южная поляна, 2 этаж;"Пн-Пт: 09:00-21:00 ; Сб: 09:00-21:00 ; Вс: 09:00-21:00";53.1703459;45.0087349;1,2 порядок
ВОЛЖСКО-УРАЛЬСКИЙ;ПЕНЗА;1-4TFH-26;POS;"ООО ""ДНС РИТЕЙЛ""";"ДНС, ООО ""ДНС РИТЕЙЛ"", г. Пенза, ул. Плеханова, д. 19";ЭКСПЕРТ-РИТЕЙЛ;2501015020001351;440000, Пензенская обл, Пенза г, Плеханова ул, д. 19;ТЦ Сан и март, центр города, 2 этаж;"Пн-Пт: 09:00-21:00 ; Сб: 09:00-21:00 ; Вс: 09:00-21:00";53.2003388;45.0121352;1,2 порядок
ВОЛЖСКО-УРАЛЬСКИЙ;ПЕНЗА;1-4TFH-26;POS;ИП Афанасьев Артем Николаевич;Бытовая техника_ИП Афанасьев А.Н._Кузнецк г, Московская ул, д. 56;;580101567000001;442534, Пензенская обл, Кузнецк г, Московская ул, д. 56;Находится по ул. Московская в здании  бывший маг. Интерьер.( напротив шатер Визит ), рядом с площадью , ДК Родина , Администрация города.;"Пн-Пт: 09:00-18:00 ; Сб: 09:00-16:00 ; Вс: 09:00-16:00";53.1183177;46.6006938;1,2 порядок
ВОЛЖСКО-УРАЛЬСКИЙ;ПЕНЗА;1-4TFH-26;POS;ИП Бабарина Ольга Александровна;Мобильные телефоны_ИП Бабарина О.А._пгт. Тамала, Советская, д. 6;;580101343000001;442900, Пензенская обл, Тамалинский р-н, Тамала рп, Советская ул, д. 6;"Магазин ""Сервис"", 1 этаж";"Пн-Пт: 08:30-17:30 ; Сб: 08:00-14:00 ; Вс: 09:00-14:00";52.5451812;43.2492933;1,2 порядок
ВОЛЖСКО-УРАЛЬСКИЙ;ПЕНЗА;1-4TFH-26;POS;"ООО ""ДНС РИТЕЙЛ""";14-09 ДНС БРОКЕР ООО ДНС РИТЕЙЛ г. Нижний Ломов, ул. Сергеева, д. 68;ЭКСПЕРТ-РИТЕЙЛ;2501015020002784;442153, Пензенская обл, Нижнеломовский р-н, Нижний Ломов г, Сергеева ул, д. 68;рядом с маг. Пятерочка;"Пн-Пт: 09:00-17:00 ; Сб: 09:00-17:00 ; Вс: 09:00-17:00";53.5343333;43.6891908;1,2 порядок
ВОЛЖСКО-УРАЛЬСКИЙ;ПЕНЗА;1-4TFH-26;POS;"ООО ""ДНС РИТЕЙЛ""";"ДНС, ООО ""ДНС РИТЕЙЛ"", г. Кузнецк, ул. Белинского, д. 82Б";ЭКСПЕРТ-РИТЕЙЛ;2501015020001347;442530, Пензенская обл, Кузнецк г, Белинского ул, д. 82Б;ТЦ Гулливер,  0 этаж- отдельный вход  с внутренней парковки;"Пн-Пт: 09:00-20:00 ; Сб: 09:00-19:00 ; Вс: 09:00-19:00";53.1177318;46.5881907;1,2 порядок
ВОЛЖСКО-УРАЛЬСКИЙ;ПЕНЗА;1-4TFH-26;POS;ИП Христофоров А.Ю.;Орион (с. Дубенки);;130100423000001;431770, Мордовия Респ, Дубенский р-н, Дубенки с, Центральная ул, д. 19;"Магазин ""Орион"", 1 этаж.";"Пн-Пт: 08:00-17:00 ; Сб: Выходной ; Вс: Выходной";54.432558;46.3004698;1,2 порядок
ВОЛЖСКО-УРАЛЬСКИЙ;ПЕНЗА;1-4TFH-26;POS;"ООО ""ДНС РИТЕЙЛ""";"ДНС, ООО ""ДНС РИТЕЙЛ"", г. Пенза, пр. Строителей, д. 49а";ЭКСПЕРТ-РИТЕЙЛ;2501015020001350;440066, Пензенская обл, Пенза г, Строителей пр-кт, д. 49а;ТЦ Проспект, район арбеково, 1 этаж;"Пн-Пт: 09:00-21:00 ; Сб: 09:00-21:00 ; Вс: 09:00-21:00";53.222643;44.890791;1,2 порядок
ВОЛЖСКО-УРАЛЬСКИЙ;ПЕНЗА;1-4TFH-26;POS;"ООО ""ДНС РИТЕЙЛ""";14-09 ДНС Брокер УП ООО ДНС РИТЕЙЛ Мордовия Респ, Рузаевка г, Горшкова б-р, дом 12;ЭКСПЕРТ-РИТЕЙЛ;2501017340001812;431449, Мордовия Респ, Рузаевка г, Горшкова б-р, д. 12;ТЦ Северный, 2 этаж;"Пн-Пт: 09:00-19:00 ; Сб: 09:00-19:00 ; Вс: 09:00-19:00";54.0771794;44.9608271;1,2 порядок
ВОЛЖСКО-УРАЛЬСКИЙ;ПЕНЗА;1-4TFH-26;IPOS;Мобильный офис;NEW_mIPos_Пенза_ул.Суворова_92(ТЦ_Красные Холмы);;660103452000039;440000, Пензенская обл, Пенза г, Суворова ул, д. 92;Стойка Банка на 1 этаже ТЦ на Меховой улице. Центральный вход - вглубь и налево.;"Пн-Пт: 09:00-20:00 ; Сб: 09:00-20:00 ; Вс: 09:00-20:00";53.201864;45.008026;1,2 порядок
ВОЛЖСКО-УРАЛЬСКИЙ;ПЕНЗА;1-4TFH-26;POS;ИП Клемин В.Н.;Офелия_ИП Клемин В.Н._РМ, г. Саранск, ул. Кирова, д. 63;;130101338000003;430004, Мордовия респ, Саранск г, Кирова ул, д. 63;ТЦ Кировский (1 этаж);"Пн-Пт: 09:00-21:00 ; Сб: 09:00-21:00 ; Вс: 09:00-21:00";54.170452;45.1784026;1,2 порядок
ВОЛЖСКО-УРАЛЬСКИЙ;ПЕНЗА;1-4TFH-26;POS;"ООО ""ДНС РИТЕЙЛ""";14-09 ДНС Брокер УП ООО ДНС РИТЕЙЛ Мордовия, Чамзинский р-н, Комсомольский рп, 2-й мкр, д 17, стр 1;ЭКСПЕРТ-РИТЕЙЛ;2501017340001814;431722, Мордовия Респ, Чамзинский р-н, Комсомольский рп, 2-й мкр, д. 17, кор. 1;ТЦ Алексеевский, 1 этаж.;"Пн-Пт: 09:00-19:00 ; Сб: 09:00-19:00 ; Вс: 09:00-19:00";54.4330972;45.8118162;1,2 порядок
ВОЛЖСКО-УРАЛЬСКИЙ;ПЕРМЬ;1-4TFH-20;POS;"ООО ""ДНС РИТЕЙЛ""";"14-09 ДНС БРОКЕР, ООО ""ДНС РИТЕЙЛ"", Барда с, Матросова ул, 10";ЭКСПЕРТ-РИТЕЙЛ;2501015020003571;618150, Пермский край, Бардымский р-н, Барда с, Матросова ул, д. 10;не указано;"Пн-Пт: 09:00-19:00 ; Сб: 09:00-19:00 ; Вс: 09:00-19:00";56.9209864;55.590258;3 порядок
ВОЛЖСКО-УРАЛЬСКИЙ;ПЕРМЬ;1-4TFH-20;POS;ИП Хакимова Е.В.;ЭКОНОМ МЕБЕЛЬ, ИП Хакимова Е.В., г. Чайковский, ул. Промышленная, д. 8А (6);;590102091000004;617762, Пермский край, Чайковский г, Промышленная ул, д. 8А;ТЦ Эконом мебель;"Пн-Пт: 10:00-19:00 ; Сб: 10:00-19:00 ; Вс: 10:00-19:00";56.7692527;54.1180437;1,2 порядок
ВОЛЖСКО-УРАЛЬСКИЙ;ПЕРМЬ;1-4TFH-20;POS;"ООО ""ДНС РИТЕЙЛ""";"14-09 ДНС Брокер УП, ООО ""ДНС РИТЕЙЛ"", Барда с, Матросова ул, 10";ЭКСПЕРТ-РИТЕЙЛ;2501017340002466;618150, Пермский край, Бардымский р-н, Барда с, Матросова ул, д. 10;не указано;"Пн-Пт: 09:00-21:00 ; Сб: 09:00-21:00 ; Вс: 09:00-21:00";56.9209864;55.590258;1,2 порядок
ВОЛЖСКО-УРАЛЬСКИЙ;ПЕРМЬ;1-4TFH-20;POS;"ООО ""ДНС РИТЕЙЛ""";"ДНС Брокер УП, ООО ""ДНС Ритейл"" 617818, г.Чернушка, ул.Нефтяников, д.2 (6)";ЭКСПЕРТ-РИТЕЙЛ;250101734000571;617818, Пермский край, Чернушинский р-н, Чернушка г, Нефтяников ул, д. 2;в ТЦ 2 этаж;"Пн-Пт: 10:00-22:00 ; Сб: 10:00-22:00 ; Вс: 10:00-22:00";56.5182516;56.0750051;1,2 порядок
ВОЛЖСКО-УРАЛЬСКИЙ;ПЕРМЬ;1-4TFH-20;POS;"ООО ""ДНС РИТЕЙЛ""";"ДНС, ООО ""ДНС Ритейл"", г. Чайковский, Советская ул, 39 (6)";ЭКСПЕРТ-РИТЕЙЛ;2501015020001583;617762, Пермский край, Чайковский г, Советская ул, д. 39;ТЦ Айсберг, центральный вход,  1 этаж;"Пн-Пт: 10:00-21:00 ; Сб: 10:00-21:00 ; Вс: 10:00-21:00";56.7592919;54.0984795;1,2 порядок
ВОЛЖСКО-УРАЛЬСКИЙ;ПЕРМЬ;1-4TFH-20;POS;ИП Микрюков Владимир Николаевич;Комфорт мягкая и корпусная мебель ИП Микрюков В.Н., г.Чернушка, ул.Ленина, д.6б (6);;590101563000002;617830, Пермский край, Чернушинский р-н, Чернушка г, Ленина ул, д. 6б;ТЦ Комфорт, в 2-х этажном здании 1й этаж;"Пн-Пт: 10:00-19:00 ; Сб: 10:00-19:00 ; Вс: 10:00-19:00";56.521829;56.0880001;1,2 порядок
ВОЛЖСКО-УРАЛЬСКИЙ;ПЕРМЬ;1-4TFH-20;POS;ИП Бастриков Владислав Александрович;Олимп, ИП Бастриков В.А., Пермь г, Архитектора Свиязева ул, д. 39А (4);;590102358000001;614065, Пермский край, Пермь г, Архитектора Свиязева ул ул, д. 39А;"магазин ""Олимп"", вход центральный, 1 этаж";"Пн-Пт: 10:00-20:00 ; Сб: 10:00-20:00 ; Вс: 10:00-20:00";57.961287;56.162213;1,2 порядок
ВОЛЖСКО-УРАЛЬСКИЙ;ПЕРМЬ;1-4TFH-20;POS;ИП Козлов Э.Г.;Каскад Кунгур (2);;590100820000001;617470, Пермский край, Кунгур г, Советская ул, д. 15, кор. А;Магазин Каскад цокольный этаж;"Пн-Пт: 09:00-18:00 ; Сб: 09:00-18:00 ; Вс: 09:00-16:00";57.428127;56.9424593;1,2 порядок
ВОЛЖСКО-УРАЛЬСКИЙ;ПЕРМЬ;1-4TFH-20;POS;ИП Ладин Андрей Васильевич;Центр Октябрьский (2);;590100605000001;617860, Пермский край, Октябрьский р-н, Октябрьский пгт, Трактовая ул, д. 22;Магазин Центр 2 этаж;"Пн-Пт: 10:00-19:00 ; Сб: 10:00-16:00 ; Вс: 10:00-16:00";56.5174088;57.2050609;1,2 порядок
ВОЛЖСКО-УРАЛЬСКИЙ;ПЕРМЬ;1-4TFH-20;POS;"ООО ""ДНС РИТЕЙЛ""";"ДНС Брокер УП, ООО ""ДНС Ритейл"" 617060, Пермский край, Краснокамск, пер.Банковский, д.8а (5)";ЭКСПЕРТ-РИТЕЙЛ;250101734000578;617060, Пермский край, Краснокамский р-н, Краснокамск г, Банковский пер, д. 8а;не указано;"Пн-Пт: 10:00-22:00 ; Сб: 10:00-22:00 ; Вс: 10:00-22:00";58.0794808;55.7567768;1,2 порядок
ВОЛЖСКО-УРАЛЬСКИЙ;ПЕРМЬ;1-4TFH-20;POS;"ООО ""Вега""";"33 комода, ООО ""Вега"", г. Соликамск, ул. Всеобуча, д. 164/4(8)";;590200437000001;618554, Пермский край, Соликамск г, Всеобуча ул, д. 164/4;ТЦ 33 комода на 1 этаже.;"Пн-Пт: 10:00-20:00 ; Сб: 10:00-20:00 ; Вс: 10:00-18:00";59.667854;56.75448;1,2 порядок
ВОЛЖСКО-УРАЛЬСКИЙ;ПЕРМЬ;1-4TFH-20;POS;ИП Цвенгер Елена Михайловна;Дома Дом ИП Цвенгер Е.М., г. Чусовой, ул. Мира, д. 26 (2);;590102124000001;618206, Пермский край, Чусовой г, Мира ул, д. 26;ТЦ Сатурн ,ул Мира ,д 17 ,Цокольный этаж;"Пн-Пт: 10:00-21:00 ; Сб: 10:00-21:00 ; Вс: 10:00-21:00";58.271983;57.8070246;1,2 порядок
ВОЛЖСКО-УРАЛЬСКИЙ;ПЕРМЬ;1-4TFH-20;POS;"ООО ""ДНС РИТЕЙЛ""";"ДНС Брокер УП, ООО ""ДНС Ритейл"" 618900, Пермский край, г.Лысьва, ул.Смышляева, д.45 (2)";ЭКСПЕРТ-РИТЕЙЛ;250101734000568;618900, Пермский край, Лысьва г, Смышляева ул, д. 45;Цокольный этаж;"Пн-Пт: 10:00-22:00 ; Сб: 10:00-22:00 ; Вс: 10:00-22:00";58.1033857;57.7987261;1,2 порядок
ВОЛЖСКО-УРАЛЬСКИЙ;ПЕРМЬ;;POS;"ООО ""ДНС РИТЕЙЛ""";"14-09 ДНС Брокер УП, ООО ""ДНС РИТЕЙЛ"", Нытва г, Карла Маркса ул, д. 64";ЭКСПЕРТ-РИТЕЙЛ;2501017340002197;617000, Пермский кр, Нытвенский р-н, Нытва г, Карла Маркса ул, д. 64 д;не указано;"Пн-Пт: 09:00-21:00 ; Сб: 09:00-21:00 ; Вс: 09:00-21:00";;;1,2 порядок
ВОЛЖСКО-УРАЛЬСКИЙ;ПЕРМЬ;;POS;"ООО ""ДНС РИТЕЙЛ""";"14-09 ДНС Брокер УП, ООО ""ДНС РИТЕЙЛ"", Соликамск г, 20-летия Победы ул, д. 117А(8)";ЭКСПЕРТ-РИТЕЙЛ;2501017340002205;618540, Пермский кр, Соликамск г, 20-летия Победы ул, д. 117а д;Сити 2 этаж;"Пн-Пт: 09:00-21:00 ; Сб: 09:00-21:00 ; Вс: 09:00-21:00";59.64859;56.77297;1,2 порядок
ВОЛЖСКО-УРАЛЬСКИЙ;ПЕРМЬ;;POS;"ООО ""ДНС РИТЕЙЛ""";"14-09 ДНС Брокер УП, ООО ""ДНС РИТЕЙЛ"", Оса г, Максима Горького ул, д. 79Б";ЭКСПЕРТ-РИТЕЙЛ;2501017340002200;618120, Пермский край, Осинский р-н, Оса г, Максима Горького ул, д. 79б;1 этаж;"Пн-Пт: 09:00-21:00 ; Сб: 09:00-21:00 ; Вс: 09:00-21:00";57.2889656;55.4749196;1,2 порядок
ВОЛЖСКО-УРАЛЬСКИЙ;ПЕРМЬ;;POS;"ООО ""ДНС РИТЕЙЛ""";"14-09 ДНС Брокер УП, ООО ""ДНС РИТЕЙЛ"", Красновишерск г, Дзержинского ул, д. 7, кор. А(8)";ЭКСПЕРТ-РИТЕЙЛ;2501017340002206;618590, Пермский край, Красновишерский р-н, Красновишерск г, Дзержинского ул, д. 7А;отдел находтся за ТЦ Крепар, центральный вход;"Пн-Пт: 09:00-21:00 ; Сб: 09:00-21:00 ; Вс: 09:00-21:00";60.413322;57.08089;1,2 порядок
ВОЛЖСКО-УРАЛЬСКИЙ;САМАРА;1-4TFH-13;POS;"ООО ""ДНС РИТЕЙЛ""";"""ДНС"", ООО ""ДНС РИТЕЙЛ"",г. Новокуйбышевск, пр. Победы, д. 1Ж";ЭКСПЕРТ-РИТЕЙЛ;250101502000902;446201, Самарская обл, Новокуйбышевск г, Победы пр-кт, д. 1Ж;ТЦ СитиПарк;"Пн-Пт: 09:00-21:00 ; Сб: 09:00-21:00 ; Вс: 09:00-21:00";53.10178;49.95849;1,2 порядок
ВОЛЖСКО-УРАЛЬСКИЙ;САМАРА;1-4TFH-13;POS;;"Интернет магазин_""СИТИЛИНК""_Кронар_Тольятти, Ленинский проспект, д. 8а (ТЦ ""БИКО"")";;770103914002030;445040, Самарская обл, Тольятти г, Ленинский пр-кт, д. 8А;ТЦ БИКО, магазин Ситилинк;"Пн-Пт: 10:00-21:00 ; Сб: 10:00-21:00 ; Вс: 10:00-21:00";53.518343;49.3057745;1,2 порядок
ВОЛЖСКО-УРАЛЬСКИЙ;САМАРА;1-4TFH-13;POS;"ООО ""ДНС РИТЕЙЛ""";"14-09 ""ДНС"" БРОКЕР ООО ДНС Самарская обл, Жигулевск г, Московское ш, 18";ЭКСПЕРТ-РИТЕЙЛ;2501015020002760;445350, Самарская обл, Жигулевск г, Московское ш, д. 18;ТЦ ОЗОН;"Пн-Пт: 09:00-21:00 ; Сб: 09:00-21:00 ; Вс: 09:00-21:00";53.4276777;49.4802754;1,2 порядок
ВОЛЖСКО-УРАЛЬСКИЙ;САМАРА;1-4TFH-13;POS;"ООО ""ДНС РИТЕЙЛ""";"1,2 пор ""ДНС"" ООО ""ДНС РИТЕЙЛ"" г Октябрьск ул Гая д.39 корпус В";ЭКСПЕРТ-РИТЕЙЛ;2501015020002578;445244, Самарская обл, Октябрьск г, Гая ул, д. 39В;магазин ДНС;"Пн-Пт: 09:00-20:00 ; Сб: 09:00-20:00 ; Вс: 09:00-20:00";53.1683785;48.6684693;1,2 порядок
ВОЛЖСКО-УРАЛЬСКИЙ;САМАРА;1-4TFH-13;POS;;14-09 СИТИЛИНК Самарская область, г. Новокуйбышевск, пр-кт Победы 1ж оффлайн;;770103914002068;446204, Самарская обл, Новокуйбышевск г, Победы пр-кт, д. 1-Ж;ТЦ СитиПарк;"Пн-Пт: 09:00-21:00 ; Сб: 09:00-21:00 ; Вс: 09:00-21:00";53.1017562;49.9584306;1,2 порядок
ВОЛЖСКО-УРАЛЬСКИЙ;САМАРА;1-4TFH-13;POS;"ООО ""ДНС РИТЕЙЛ""";"1,2 14-09 ""ДНС"", Кинель-Черкассы на Карла Маркса,д.9";ЭКСПЕРТ-РИТЕЙЛ;2501015020001763;446350, Самарская обл, Кинель-Черкасский р-н, Кинель-Черкассы с, д. 9;магазин ДНС кредитный отдел;"Пн-Пт: 09:00-20:00 ; Сб: 09:00-20:00 ; Вс: 09:00-20:00";;;1,2 порядок
ВОЛЖСКО-УРАЛЬСКИЙ;САМАРА;1-4TFH-13;POS;ИП Богданова И.Н.;"""МБТ""ИП Богданова И.Н.г. КИНЕЛЬ, ул. Маяковского, д. 81";;630101219000001;446430, Самарская обл, Кинель г, Маяковского ул, д. 77;ТЦ Бытовая Техника;"Пн-Пт: 09:00-21:00 ; Сб: 09:00-21:00 ; Вс: 09:00-21:00";53.2200771;50.6436845;1,2 порядок
ВОЛЖСКО-УРАЛЬСКИЙ;САМАРА;1-4TFH-13;POS;"ООО ""ДНС РИТЕЙЛ""";"14-09 ""ДНС"" БРОКЕР, ООО ""ДНС РИТЕЙЛ"" Самарская обл, Чапаевск г, Запорожская ул, 18А д.";ЭКСПЕРТ-РИТЕЙЛ;2501015020003338;446103, Самарская обл, Чапаевск г, Запорожская ул, д. 18А;ТЦ Нова Легенда;"Пн-Пт: 09:00-21:00 ; Сб: 09:00-21:00 ; Вс: 09:00-21:00";52.9544155;49.6887592;1,2 порядок
ВОЛЖСКО-УРАЛЬСКИЙ;САМАРА;1-4TFH-13;POS;"ООО ""ДНС РИТЕЙЛ""";"1,2 14-09 ""ДНС"", Отрадный ТЦ Магнит";ЭКСПЕРТ-РИТЕЙЛ;2501015020001624;446303, Самарская обл, Отрадный г, Нефтяников ул, д. 90;ТЦ Магнит;"Пн-Пт: 09:00-20:00 ; Сб: 09:00-20:00 ; Вс: 09:00-20:00";53.3722313;51.3586719;1,2 порядок
ВОЛЖСКО-УРАЛЬСКИЙ;САМАРА;1-4TFH-13;POS;"ООО ""ДНС РИТЕЙЛ""";"14-09 ""ДНС"" БРОКЕР ООО ДНС РИТЕЙЛ г Нефтегорск, пр-кт Победы, д 18";ЭКСПЕРТ-РИТЕЙЛ;2501015020003575;446600, Самарская обл, Нефтегорский р-н, Нефтегорск г, Победы пр-кт, д. 18;не указано;"Пн-Пт: 09:00-21:00 ; Сб: 09:00-21:00 ; Вс: 09:00-21:00";52.7975827;51.1653791;1,2 порядок
ВОЛЖСКО-УРАЛЬСКИЙ;САМАРА;1-4TFH-13;POS;;"""Ситилинк"", ООО ""Ситилинк"", г. Самара, Московское шоссе, д. 163 А";;770103914002045;443028, Самарская обл, Самара г, Московское ш, д. 163А;ТЦ Империя;"Пн-Пт: 09:00-21:00 ; Сб: 09:00-21:00 ; Вс: 09:00-21:00";53.246283;50.216552;1,2 порядок
ВОЛЖСКО-УРАЛЬСКИЙ;САМАРА;1-4TFH-13;POS;"ООО ""ДНС РИТЕЙЛ""";"1,2 ""ДНС"", ООО ""ДНС РИТЕЙЛ"",г. Самара, Кирова проспект, 147";ЭКСПЕРТ-РИТЕЙЛ;250101502000916;443077, Самарская обл, Самара г, Кирова пр-кт, д. 147;ТЦ ВиваЛэнд;"Пн-Пт: 10:00-22:00 ; Сб: 10:00-22:00 ; Вс: 10:00-22:00";53.2205738;50.2629257;1,2 порядок
ВОЛЖСКО-УРАЛЬСКИЙ;САМАРА;1-4TFH-13;POS;;"14-09 ""СИТИЛИНК"" ООО Ситилинк Самарская обл, г Чапаевск, ул Запорожская, д 18А (офлайн)";;770103914002093;446103, Самарская обл, Чапаевск г, Запорожская ул, д. 18А;не указано;"Пн-Пт: 09:00-21:00 ; Сб: 09:00-21:00 ; Вс: 09:00-21:00";52.9544155;49.6887592;3 порядок
ВОЛЖСКО-УРАЛЬСКИЙ;САМАРА;1-4TFH-13;POS;"ООО ""ДНС РИТЕЙЛ""";"""ДНС"", ООО ""ДНС РИТЕЙЛ"",г. Самара,ул. Сергея Лазо,д. 26А";ЭКСПЕРТ-РИТЕЙЛ;250101502000909;443026, Самарская обл, Самара г, Сергея Лазо ул, д. 26А;магазин ДНС;"Пн-Пт: 10:00-22:00 ; Сб: 10:00-22:00 ; Вс: 10:00-22:00";53.3475414;50.2181351;1,2 порядок
ВОЛЖСКО-УРАЛЬСКИЙ;САМАРА;1-4TFH-13;POS;"ООО ""ДНС РИТЕЙЛ""";"14-09 ""ДНС"" БРОКЕР ООО ""ДНС РИТЕЙЛ"" Тольятти г, Автозаводское ш, 10";ЭКСПЕРТ-РИТЕЙЛ;2501015020002080;445004, Самарская обл, Тольятти г, Автозаводское ш, д. 10;ТЦ Лайм;"Пн-Пт: 10:00-22:00 ; Сб: 10:00-22:00 ; Вс: 10:00-22:00";53.5392328;49.3906391;1,2 порядок
ВОЛЖСКО-УРАЛЬСКИЙ;САМАРА;1-4TFH-13;POS;"ООО ""ДНС РИТЕЙЛ""";"14-09 ДНС БРОКЕР, ООО ""ДНС РИТЕЙЛ"",г Кинель ул Маяковского зд 86В";ЭКСПЕРТ-РИТЕЙЛ;2501015020003557;446430, Самарская обл, Кинель г, Маяковского ул, д. 86В;не указано;"Пн-Пт: 09:00-21:00 ; Сб: 09:00-21:00 ; Вс: 09:00-21:00";53.2173409;50.6482646;1,2 порядок
ВОЛЖСКО-УРАЛЬСКИЙ;САМАРА;1-4TFH-13;POS;"ООО ""ДНС РИТЕЙЛ""";"""ДНС"", ООО ""ДНС РИТЕЙЛ"", г. Новокуйбышевск, пр. Победы, д. 24";ЭКСПЕРТ-РИТЕЙЛ;250101502000901;446204, Самарская обл, Новокуйбышевск г, Победы пр-кт, д. 24;ТЦ Миндаль;"Пн-Пт: 10:00-21:00 ; Сб: 10:00-21:00 ; Вс: 10:00-21:00";53.0967043;49.9684913;1,2 порядок
ВОЛЖСКО-УРАЛЬСКИЙ;САМАРА;1-4TFH-13;POS;"ООО ""ДНС РИТЕЙЛ""";"14-09 ДНС,ООО ""ДНС РИТЕЙЛ"", Самарская обл, Новокуйбышевск г, Победы пр-кт, д. 36";ЭКСПЕРТ-РИТЕЙЛ;2501015020002292;446204, Самарская обл, Новокуйбышевск г, Победы пр-кт, д. 36;не указано;"Пн-Пт: 09:00-21:00 ; Сб: 09:00-21:00 ; Вс: 09:00-21:00";53.1017562;49.9584306;1,2 порядок
ВОЛЖСКО-УРАЛЬСКИЙ;САМАРА;1-4TFH-13;POS;"ООО ""ДНС РИТЕЙЛ""";"1,2 14-09 ""ДНС"", Самара ТРК Гудок";ЭКСПЕРТ-РИТЕЙЛ;2501015020001626;443026, Самарская обл, Самара г, Красноармейская ул, д. 131, 1;ТЦ Гудок;"Пн-Пт: 10:00-22:00 ; Сб: 10:00-22:00 ; Вс: 10:00-22:00";53.1865093;50.1281958;1,2 порядок
ВОЛЖСКО-УРАЛЬСКИЙ;САМАРА;1-4TFH-13;POS;"ООО ""ДНС РИТЕЙЛ""";"1-2, ""ДНС"", ООО ""ДНС РИТЕЙЛ"", г. Тольятти, ул. Дзержинского, д. 21";ЭКСПЕРТ-РИТЕЙЛ;250101502000951;445032, Самарская обл, Тольятти г, Дзержинского ул, д. 21;ТЦ Капитал;"Пн-Пт: 10:00-21:00 ; Сб: 10:00-21:00 ; Вс: 10:00-21:00";53.5337097;49.3197751;1,2 порядок
ВОЛЖСКО-УРАЛЬСКИЙ;СУРГУТ;1-4TFH-79;POS;"ООО ""ДНС РИТЕЙЛ""";"14-09 ДНС Брокер УП, ООО ""ДНС РИТЕЙЛ"", Радужный г, Ягельная ул, дом 18А";ЭКСПЕРТ-РИТЕЙЛ;2501017340001960;628464, Ханты-Мансийский Автономный округ - Югра АО, Радужный г, Ягельная ул, д. 18А;магазин ДНС, в 9-этажном здании на 1 этаже;"Пн-Пт: 09:00-21:00 ; Сб: 09:00-21:00 ; Вс: 09:00-21:00";62.1367051;77.45562;1,2 порядок
ВОЛЖСКО-УРАЛЬСКИЙ;СУРГУТ;1-4TFH-79;IPOS;Мобильный офис;NEW mIPOS Нижневартовск г, Ленина ул, д. 9П, ТЦ Зеленый дворик;;660103452000190;628600, Ханты-Мансийский Автономный округ - Югра АО, Нижневартовск г, Ленина ул, д. 9П, офис 21;ТЦ Зеленый дворик, 2 этаж;"Пн-Пт: 10:00-18:00 ; Сб: Выходной ; Вс: Выходной";60.939616;76.542643;1,2 порядок
ВОЛЖСКО-УРАЛЬСКИЙ;СУРГУТ;1-4TFH-79;POS;"ООО ""ДНС РИТЕЙЛ""";"ДНС, ООО ""ДНС РИТЕЙЛ"",628661 г.Покачи ул.Таежная, д. 7/2";ЭКСПЕРТ-РИТЕЙЛ;2501015020001884;628661, Ханты-Мансийский Автономный округ - Югра ао, Покачи г, Таежная ул, д. 7/2;"ТЦ ""Магнит"", 3 этаж, магазин ДНС";"Пн-Пт: 10:00-21:00 ; Сб: 10:00-21:00 ; Вс: 10:00-21:00";61.7437194;75.5932458;1,2 порядок
ВОЛЖСКО-УРАЛЬСКИЙ;СУРГУТ;1-4TFH-79;POS;"ООО ""ДНС РИТЕЙЛ""";"ДНС Брокер УП, ООО ""ДНС Ритейл"" 628482Когалым г,Дружбы Народов ул,д. 60,";ЭКСПЕРТ-РИТЕЙЛ;250101734000043;628481, Ханты-Мансийский Автономный округ - Югра АО, Когалым г, Дружбы Народов ул, д. 60;ТЦ Галактика, 1 этаж, магазин ДНС;"Пн-Пт: 10:00-22:00 ; Сб: 10:00-22:00 ; Вс: 10:00-22:00";62.253245;74.5306674;1,2 порядок
ВОЛЖСКО-УРАЛЬСКИЙ;СУРГУТ;1-4TFH-79;POS;"ООО ""ДНС РИТЕЙЛ""";"14-09 ДНС Брокер УП, ООО ""ДНС РИТЕЙЛ"", Мегион г, Строителей ул, д. 11/1";ЭКСПЕРТ-РИТЕЙЛ;2501017340002149;628681, Ханты-Мансийский Автономный округ - Югра ао, Мегион г, Строителей ул, д. 11/1 д;"ТЦ ""Купеческий двор"", 2 этаж, магазин ДНС";"Пн-Пт: 09:00-21:00 ; Сб: 09:00-21:00 ; Вс: 09:00-21:00";61.0275943;76.1119625;1,2 порядок
ВОЛЖСКО-УРАЛЬСКИЙ;СУРГУТ;1-4TFH-79;POS;"ООО ""ДНС РИТЕЙЛ""";14-09 ДНС Брокер УП ООО ДНС Ритейл Ханты-Мансийский АО - Югра, Пойковский пгт. 5-й мкр, стр. 10/1;ЭКСПЕРТ-РИТЕЙЛ;2501017340001716;628331, Ханты-Мансийский Автономный округ - Югра ао, Нефтеюганский р-н, 5-й (пгт Пойковский) мкр, д. 10/1;ТЦ Радуга, 2-й этаж, магазин ДНС;"Пн-Пт: 09:00-21:00 ; Сб: 09:00-21:00 ; Вс: 09:00-21:00";60.995917;71.90544;1,2 порядок
ВОЛЖСКО-УРАЛЬСКИЙ;СУРГУТ;1-4TFH-79;POS;"ООО ""ДНС РИТЕЙЛ""";"ДНС Брокер УП, ООО ""ДНС Ритейл"" г. Нефтеюганск, 6 микрорайон, ул.Нефтяников, строение 87";ЭКСПЕРТ-РИТЕЙЛ;250101734000639;628301, Ханты-Мансийский Автономный округ - Югра ао, Нефтеюганск г, 6 мкр, Нефтяников ул, д. 87;ТЦ Оранж Молл, 2 этаж, магазин ДНС, кредитный отдел;"Пн-Пт: 10:00-22:00 ; Сб: 10:00-22:00 ; Вс: 10:00-22:00";;;1,2 порядок
ВОЛЖСКО-УРАЛЬСКИЙ;СУРГУТ;1-4TFH-79;POS;"ООО ""ДНС РИТЕЙЛ""";"14-09 ДНС Брокер УП, ООО ""ДНС РИТЕЙЛ"", Нефтеюганск г, 15-й мкр, строение 6";ЭКСПЕРТ-РИТЕЙЛ;2501017340002362;628306, Ханты-Мансийский Автономный округ - Югра АО, Нефтеюганск г, 15-й мкр, д. 6;ТЦ Оранжерея, Магазин ДНС, кредитный отдел;"Пн-Пт: 09:00-21:00 ; Сб: 09:00-21:00 ; Вс: 09:00-21:00";61.07563;72.613924;1,2 порядок
ВОЛЖСКО-УРАЛЬСКИЙ;СУРГУТ;1-4TFH-79;POS;"ООО ""ДНС РИТЕЙЛ""";"Брокер ДНС, ООО ""ДНС РИТЕЙЛ"", г. Сургут, ул. Генерала Иванова д.1";ЭКСПЕРТ-РИТЕЙЛ;250101502000313;628400, Ханты-Мансийский Автономный округ - Югра АО, Сургут г, Генерала Иванова ул, д. 1;ТЦ Вершина, 2 этаж, магазин ДНС, кредитный отдел;"Пн-Пт: 10:00-21:00 ; Сб: 10:00-21:00 ; Вс: 10:00-21:00";61.2566197;73.4315087;1,2 порядок
ВОЛЖСКО-УРАЛЬСКИЙ;СУРГУТ;1-4TFH-79;POS;"ООО ""ДНС РИТЕЙЛ""";"ДНС Брокер УП, ООО ""ДНС Ритейл"" 628672, ХМАО-Югра, г.Лангепас, ул.Ленина ,40";ЭКСПЕРТ-РИТЕЙЛ;250101734000529;628672, Ханты-Мансийский Автономный округ - Югра ао, Лангепас г, Ленина ул, д. 40;"ТЦ ""Лангепас"", 1 этаж, магазин ДНС";"Пн-Пт: 10:00-22:00 ; Сб: 10:00-22:00 ; Вс: 10:00-22:00";61.2481591;75.182717;1,2 порядок
ВОЛЖСКО-УРАЛЬСКИЙ;СУРГУТ;1-4TFH-79;IPOS;Мобильный офис;NEW mIPOS Ноябрьск г, Новоселов ул, дом 6, ТЦ Городок;;660103452000184;629806, Ямало-Ненецкий АО, Ноябрьск г, Новоселов ул, д. 6;ТЦ Городок, 1 этаж, магазин УЮТ;"Пн-Пт: 10:00-20:00 ; Сб: 10:00-20:00 ; Вс: 10:00-20:00";63.1862508;75.4440394;1,2 порядок
ВОЛЖСКО-УРАЛЬСКИЙ;СУРГУТ;1-4TFH-79;POS;"ООО ""ДНС РИТЕЙЛ""";"ДНС Брокер УП, ООО ""ДНС Ритейл"" 628415,Россия,ХМАО-Югра АО,Сургут,Профсоюзов,д. 11,";ЭКСПЕРТ-РИТЕЙЛ;250101734000645;628415, Ханты-Мансийский Автономный округ - Югра ао, Сургут г, Профсоюзов ул, д. 11;ТЦ Агора, 2-й этаж, магазин ДНС;"Пн-Пт: 10:00-22:00 ; Сб: 10:00-22:00 ; Вс: 10:00-22:00";61.2692661;73.382086;1,2 порядок
ВОЛЖСКО-УРАЛЬСКИЙ;СУРГУТ;1-4TFH-79;IPOS;Мобильный офис;NEW mIPOS Сургут г, Маяковского ул, дом 57, ТЦ Гулливер;;660103452000046;628426, Ханты-Мансийский Автономный округ - Югра ао, Сургут г, Маяковского ул, д. 57;ТЦ Гулливер, 3 корпус, 1 этаж, возле эскалатора;"Пн-Пт: 10:00-20:00 ; Сб: 10:00-20:00 ; Вс: 10:00-20:00";61.2665825;73.4212153;1,2 порядок
ВОЛЖСКО-УРАЛЬСКИЙ;СЫКТЫВКАР;1-4TFH-50;POS;ИП Мезенцева Светлана Дмитриевна;Апельсин, ИП Мезенцева С.Д., Коми Респ, Ухта г, Октябрьская ул, д. 17А;;110101544000001;169300, Коми Респ, Ухта г, Октябрьская ул, д. 17А;не указано;"Пн-Пт: 10:00-19:00 ; Сб: 10:00-18:00 ; Вс: 10:00-17:00";63.5556891;53.6907046;3 порядок
ВОЛЖСКО-УРАЛЬСКИЙ;СЫКТЫВКАР;1-4TFH-50;POS;ИП Соловьева Валентина Николаевна;www.askona.ru, Аскона Оплеснина, ИП Соловьева В.Н., Коми Респ, Ухта г, Оплеснина ул, д. 15А;;110101519000003;169313, Коми Респ, Ухта г, Оплеснина ул, д. 15А;не указано;"Пн-Пт: 10:00-19:00 ; Сб: 10:00-18:00 ; Вс: 10:00-18:00";63.5610183;53.6748742;3 порядок
ВОЛЖСКО-УРАЛЬСКИЙ;СЫКТЫВКАР;1-4TFH-50;POS;ЛЕСПРОМСЕРВИС;Хускварна-Сенюкова, ООО Леспромсервис, Ухта г., Сенюкова ул., д. 12А;;1101066000007;169316, Коми Респ, Ухта г, Сенюкова ул, д. 12А;не указано;"Пн-Пт: 09:00-19:00 ; Сб: 10:00-18:00 ; Вс: 10:00-17:00";63.5700232;53.6887488;3 порядок
ВОЛЖСКО-УРАЛЬСКИЙ;СЫКТЫВКАР;1-4TFH-50;POS;ИП Соловьева Валентина Николаевна;Darwin Ярмарка, ИП Соловьева В.Н., Коми Респ, Ухта г, Строительная ул, д. 2 А;;110101519000006;169314, Коми Респ, Ухта г, Строительная ул, д. 2а;не указано;"Пн-Пт: 10:00-21:00 ; Сб: 10:00-21:00 ; Вс: 10:00-21:00";63.566863;53.70657;3 порядок
ВОЛЖСКО-УРАЛЬСКИЙ;СЫКТЫВКАР;1-4TFH-50;POS;ИП Ткачук С. К.;vk.com/sviana_magazin, Свиана-Ухта, ИП Ткачук С.К., Коми Респ, Ухта г, Октябрьская ул, д. 34;;110100992000003;169300, Коми Респ, Ухта г, Октябрьская ул, д. 34;не указано;"Пн-Пт: 11:00-19:00 ; Сб: 11:00-18:00 ; Вс: 11:00-18:00";63.5614146;53.6866483;3 порядок
ВОЛЖСКО-УРАЛЬСКИЙ;СЫКТЫВКАР;1-4TFH-50;POS;ИП Павлов Иван Анатольевич;Мехико, И.П. Павлов И.А., Ухта, 40 лет Коми АССР, д. 14/11;;110101549000001;169313, Коми Респ, Ухта г, 40 лет Коми АССР ул, д. 14/11;"Жилой дом на 1 этаже находится ""Мехико"" (Остановка гостиница Тиман, либо Торговый дом Мир)";"Пн-Пт: 09:00-19:00 ; Сб: 10:00-19:00 ; Вс: 10:00-19:00";63.5623414;53.6799958;1,2 порядок
ВОЛЖСКО-УРАЛЬСКИЙ;СЫКТЫВКАР;1-4TFH-50;POS;ИП Бахтина Л.Н.;www.mag-zodiak.ru,Знак Зодиака на Семяшкина, ИП Бахтина Л.Н.,Коми Респ, Ухта г, Семяшкина ул, д. 8В;;110100899000004;169300, Коми Респ, Ухта г, Семяшкина ул, д. 8В;не указано;"Пн-Пт: 10:00-19:00 ; Сб: 10:00-18:00 ; Вс: 10:00-17:00";63.5572278;53.6837721;3 порядок
ВОЛЖСКО-УРАЛЬСКИЙ;СЫКТЫВКАР;1-4TFH-50;POS;ИП Попов Александр Александрович;www.mag-zodiak.ru,Знак Зодиака,ИП Попов А.А,РК г.Ухта,ул. Семяшкина 8В;;110101238000004;169300, Коми Респ, Ухта г, Семяшкина ул, д. 8в;не указано;"Пн-Пт: 10:00-19:00 ; Сб: 10:00-18:00 ; Вс: 10:00-17:00";63.5572278;53.6837721;3 порядок
ВОЛЖСКО-УРАЛЬСКИЙ;СЫКТЫВКАР;1-4TFH-50;POS;ИП Ткачук С. К.;Свиана-Ухта, Ип Ткачук С.К., Коми Респ, Ухта г, Октябрьская ул, д. 34;;110100992000002;169300, Коми Респ, Ухта г, Октябрьская ул, д. 34;не указано;"Пн-Пт: 11:00-19:00 ; Сб: 11:00-18:00 ; Вс: 11:00-18:00";63.5614146;53.6866483;3 порядок
ВОЛЖСКО-УРАЛЬСКИЙ;СЫКТЫВКАР;1-4TFH-50;POS;ИП Самойлова Г.А.;Топаз ТЦ Куратовский, Коми Респ, Ухта г, Куратова ул, д. 48Б;;110100964000008;169319, Коми Респ, Ухта г, Куратова ул, д. 48Б;не указано;"Пн-Пт: 11:00-19:00 ; Сб: 11:00-19:00 ; Вс: 11:00-19:00";63.5786933;53.6550611;3 порядок
ВОЛЖСКО-УРАЛЬСКИЙ;СЫКТЫВКАР;1-4TFH-50;POS;"ООО ""Тари""";www.tariuchta.ru.,Тари-Лэнд, ООО Тари, Коми Респ, Ухта г, Газовиков наб, д. 12, офис H-V;;110101511000004;169313, Коми Респ, Ухта г, Газовиков наб, д. 12, офис H-V;не указано;"Пн-Пт: 08:00-20:00 ; Сб: 08:00-20:00 ; Вс: 08:00-20:00";63.5684008;53.6417248;3 порядок
ВОЛЖСКО-УРАЛЬСКИЙ;СЫКТЫВКАР;1-4TFH-50;POS;ИП Соловьева Валентина Николаевна;www.askona.ru, Аскона Колесо, ИП Соловьева В.Н., Коми Респ, Ухта г, Сенюкова ул, д. 6;;110101519000004;169314, Коми Респ, Ухта г, Сенюкова ул, д. 6;не указано;"Пн-Пт: 10:00-19:00 ; Сб: 10:00-18:00 ; Вс: 10:00-18:00";63.5685066;53.6971728;3 порядок
ВОЛЖСКО-УРАЛЬСКИЙ;СЫКТЫВКАР;1-4TFH-50;POS;ИП Николаев А.С.;Магазин Доминат, ИП Николаев А.С., г. Инта, ул. Мира, д. 34;;110101114000001;169840, Коми Респ, Инта г, Мира, д. 34;не указано;"Пн-Пт: 11:00-19:00 ; Сб: 11:00-18:00 ; Вс: Выходной";66.0382681;60.1027811;3 порядок
ВОЛЖСКО-УРАЛЬСКИЙ;СЫКТЫВКАР;1-4TFH-50;POS;"ООО ""ДНС РИТЕЙЛ""";"ДНС Брокер УП, ООО ""ДНС Ритейл"" 169606, Коми, Респ, Печора, г, Советская, ул, дом 49, корпус Г";ЭКСПЕРТ-РИТЕЙЛ;250101734000422;169606, Коми Респ, Печора г, Советская ул, д. 49, кор. Г;не указано;"Пн-Пт: 10:00-20:00 ; Сб: 10:00-20:00 ; Вс: 10:00-20:00";65.144138;57.221354;1,2 порядок
ВОЛЖСКО-УРАЛЬСКИЙ;СЫКТЫВКАР;1-4TFH-50;POS;ИП Третьякова Магдалина Васильевна;Доминат, ИП Третьякова М.В, Инта, Мира 34;;110101550000001;169841, Коми Респ, Инта г, Мира ул, д. 34;не указано;"Пн-Пт: 11:00-18:00 ; Сб: 11:00-17:00 ; Вс: Выходной";66.0382681;60.1027811;3 порядок
ВОЛЖСКО-УРАЛЬСКИЙ;СЫКТЫВКАР;1-4TFH-50;POS;ИП Прибылова И.В.;Евро-тур, ИП Прибылова И.В., г. Сыктывкар, ул. Советская, д. 24;;110100870000001;167000, СЫКТЫВКАР, Советская, д. 24;не указано;"Пн-Пт: 09:00-17:00 ; Сб: Выходной ; Вс: Выходной";61.6675886;50.8420493;1,2 порядок
ВОЛЖСКО-УРАЛЬСКИЙ;СЫКТЫВКАР;1-4TFH-50;POS;"ООО ""ДНС РИТЕЙЛ""";14-09 ДНС Брокер УП ООО ДНС РИТЕЙЛ Респ Коми, Вуктыл г, Пионерская ул, д 7а;ЭКСПЕРТ-РИТЕЙЛ;2501017340002678;169570, Коми Респ, Вуктыл г, Пионерская ул, д. 7А;не указано;"Пн-Пт: 09:00-21:00 ; Сб: 09:00-21:00 ; Вс: 09:00-21:00";63.8480094;57.3059799;1,2 порядок
ВОЛЖСКО-УРАЛЬСКИЙ;СЫКТЫВКАР;1-4TFH-50;POS;"ООО ""Тари""";Тари-Бьюти, ООО Тари, Коми Респ, Ухта г, Газовиков наб, д. 12;;110101511000006;169313, Коми Респ, Ухта г, Газовиков наб, д. 12;не указано;"Пн-Пт: 09:00-21:00 ; Сб: 10:00-16:00 ; Вс: 10:00-15:00";63.5684008;53.6417248;3 порядок
ВОЛЖСКО-УРАЛЬСКИЙ;СЫКТЫВКАР;1-4TFH-50;POS;"ООО ""Фабрика Мебели ""ПОДУШЕ""";"Фабрика мебели ПОДУШЕ-УХТА, ООО ""Фабрика мебели ""ПОДУШЕ"", г. Ухта, ул. Сенюкова 6";;110101551000003;169314, Коми Респ, Ухта г, Сенюкова ул, д. 6;не указано;"Пн-Пт: 10:00-19:00 ; Сб: 10:00-19:00 ; Вс: 10:00-19:00";63.5685066;53.6971728;3 порядок
ВОЛЖСКО-УРАЛЬСКИЙ;СЫКТЫВКАР;1-4TFH-50;POS;"ООО ""ДНС РИТЕЙЛ""";"ДНС, ООО ""ДНС РИТЕЙЛ"",г. Ухта,ул. 30 лет Октября,д. 9,корп. А";;2501015010001099;169313, Коми Респ, Ухта г, 30 лет Октября ул, д. 9к.А;Жилой дом,  1 этаж, кредитный отдел;"Пн-Пт: 10:00-20:00 ; Сб: 10:00-20:00 ; Вс: 10:00-20:00";63.5641809;53.6938136;1,2 порядок
ВОЛЖСКО-УРАЛЬСКИЙ;СЫКТЫВКАР;1-4TFH-50;POS;ИП Мезенцева Светлана Дмитриевна;vk.com/apelsinuhta.,Апельсин, ИП Мезенцева С.Д., Коми Респ, Ухта г, Октябрьская ул, д. 17А;;110101544000003;169300, Коми Респ, Ухта г, Октябрьская ул, д. 17А;не указано;"Пн-Пт: 10:00-18:00 ; Сб: 10:00-16:00 ; Вс: 10:00-16:00";63.5556891;53.6907046;3 порядок
ВОЛЖСКО-УРАЛЬСКИЙ;СЫКТЫВКАР;1-4TFH-50;POS;ИП Бергман Александр Иванович;Мехико, И.П. Бергман А.И, Коми Респ, Ухта г, 40 лет Коми АССР ул, д. 14/11;;110101409000001;169300, Коми респ, Ухта г, 40 лет Коми АССР ул, д. 14/11;" Жилой дом на 1 этаже находится ""Мехико"" (Остановка гостиница Тиман, либо Торговый дом Мир)";"Пн-Пт: 10:00-19:00 ; Сб: 10:00-19:00 ; Вс: 10:00-19:00";63.5623414;53.6799958;1,2 порядок
ВОЛЖСКО-УРАЛЬСКИЙ;СЫКТЫВКАР;1-4TFH-50;POS;"ООО ""ДНС РИТЕЙЛ""";"ДНС, ООО ""ДНС РИТЕЙЛ"",г. Сыктывкар,ул. Мира,д. 18/1";;2501015010001106;167018, Коми Респ, Сыктывкар г, Мира ул, д. 18/1;Точка продаж в магазине ДНС;"Пн-Пт: 10:00-20:00 ; Сб: 10:00-19:00 ; Вс: 10:00-19:00";61.7972808;50.750475;1,2 порядок
ВОЛЖСКО-УРАЛЬСКИЙ;СЫКТЫВКАР;1-4TFH-50;POS;"ООО ""Тари""";https://vk.com/taribeauty,Тари-Бьюти, ООО Тари, Коми Респ, Ухта г, Газовиков наб, д. 12;;110101511000005;169313, Коми Респ, Ухта г, Газовиков наб, д. 12;не указано;"Пн-Пт: 09:00-21:00 ; Сб: 10:00-16:00 ; Вс: 10:00-15:00";63.5684008;53.6417248;3 порядок
ВОЛЖСКО-УРАЛЬСКИЙ;СЫКТЫВКАР;1-4TFH-50;POS;ИП Соловьева Валентина Николаевна;https://vk.com/darwinuhta1,Ярмарка,ИП Соловьева В.Н., Коми Респ, Ухта г, Строительная ул, д. 2 А;;110101519000007;169314, Коми Респ, Ухта г, Строительная ул, д. 2а;не указано;"Пн-Пт: 10:00-21:00 ; Сб: 10:00-21:00 ; Вс: 10:00-21:00";63.566863;53.70657;3 порядок
ВОЛЖСКО-УРАЛЬСКИЙ;СЫКТЫВКАР;1-4TFH-50;POS;ИП Мезенцева Светлана Дмитриевна;www.apelsin-uhta.ru.,Апельсин, ИП Мезенцева С.Д., Коми Респ, Ухта г, Октябрьская ул, д. 17А;;110101544000002;169300, Коми Респ, Ухта г, Октябрьская ул, д. 17А;не указано;"Пн-Пт: 10:00-18:00 ; Сб: 10:00-16:00 ; Вс: 10:00-16:00";63.5556891;53.6907046;3 порядок
ВОЛЖСКО-УРАЛЬСКИЙ;СЫКТЫВКАР;1-4TFH-50;POS;"ООО ""ДНС РИТЕЙЛ""";Днс, ООО Днс Ритейл, г.Печора, ул. Советская, д. 49Г;;2501015010001666;169606, Коми Респ, Печора г, Советская ул, д. 49, кор. г;ТРЦ УРАЛ, 2 этаж, ДКЖ район;"Пн-Пт: 09:00-20:00 ; Сб: 09:00-20:00 ; Вс: 09:00-20:00";65.144138;57.221354;1,2 порядок
ВОЛЖСКО-УРАЛЬСКИЙ;СЫКТЫВКАР;1-4TFH-50;POS;ИП Соловьева Валентина Николаевна;www.vk.com/askonauchta, Аскона Колесо, ИП Соловьева В.Н., Коми Респ, Ухта г, Сенюкова ул, д. 6;;110101519000005;169314, Коми Респ, Ухта г, Сенюкова ул, д. 6;не указано;"Пн-Пт: 10:00-19:00 ; Сб: 10:00-18:00 ; Вс: 10:00-18:00";63.5685066;53.6971728;3 порядок
ВОЛЖСКО-УРАЛЬСКИЙ;СЫКТЫВКАР;1-4TFH-50;POS;ИП Тарасевич Андрей Юрьевич;vk.com/forwarduhta, Магазин Форвард, Тарасевич А.Ю., г. Ухта, Бушуева 14а;;110101543000007;169300, Коми Респ, Ухта г, Бушуева ул, д. 14А;не указано;"Пн-Пт: 10:00-19:00 ; Сб: 10:00-19:00 ; Вс: 10:00-19:00";63.5652839;53.6988785;3 порядок
ВОЛЖСКО-УРАЛЬСКИЙ;СЫКТЫВКАР;1-4TFH-50;POS;"ООО ""ДНС РИТЕЙЛ""";"ДНС Брокер УП, ООО ""ДНС Ритейл"" 167000,Коми,г. Сыктывкар,ул. Первомайская,д. 40,";ЭКСПЕРТ-РИТЕЙЛ;250101734000425;167000, Коми Респ, Сыктывкар г, Первомайская ул, д. 40;не указано;"Пн-Пт: 10:00-21:00 ; Сб: 10:00-21:00 ; Вс: 10:00-21:00";61.675521;50.822421;1,2 порядок
ВОЛЖСКО-УРАЛЬСКИЙ;СЫКТЫВКАР;1-4TFH-50;POS;"ООО ""ДНС РИТЕЙЛ""";14-09 ДНС Брокер УП ООО ДНС РИТЕЙЛ Коми Респ, Воркута г, Пищевиков б-р, дом 17, корпус Б;ЭКСПЕРТ-РИТЕЙЛ;2501017340001847;169900, Коми Респ, Воркута г, Пищевиков б-р, д. 17Б;не указано;"Пн-Пт: 10:00-20:00 ; Сб: 10:00-20:00 ; Вс: 10:00-20:00";67.499622;64.0684502;1,2 порядок
ВОЛЖСКО-УРАЛЬСКИЙ;СЫКТЫВКАР;1-4TFH-50;POS;"ООО ""ДНС РИТЕЙЛ""";"ДНС, ООО ""ДНС Ритейл"", Воркута, б-р Пищевиков 17 б";;2501015010002085;169900, Коми Респ, Воркута г, Пищевиков б-р, д. 17Б;ТРЦ Максима, 2 этаж, кредитный отдел;"Пн-Пт: 10:00-20:00 ; Сб: 10:00-20:00 ; Вс: 10:00-20:00";67.499622;64.0684502;1,2 порядок
ВОЛЖСКО-УРАЛЬСКИЙ;ТЮМЕНЬ;1-4TFH-19;POS;ИП Рамазян Татьяна Григорьевна;https://vk.com/velosipedy_sanky_kolyasky ИП РамазянТГКурганскаяоблгШадринскулОктябрьскаяд101;;720103200000001;641870, Курганская обл, Шадринск г, Октябрьская ул, д. 101;не указано;"Пн-Пт: 09:00-16:00 ; Сб: 09:00-16:00 ; Вс: 09:00-16:00";56.0825113;63.6294963;3 порядок
ВОЛЖСКО-УРАЛЬСКИЙ;ТЮМЕНЬ;1-4TFH-19;POS;ИП Михайлова Р.П.;ТехноВыбор, ИП Михайлова Р.П., с. Аромашево, ул. 1 Мая, д. 1;;720101267000002;627350, Тюменская обл, Аромашевский р-н, Аромашево с, 1 Мая ул, д. 1;Магазин Техновыбор 1 этаж;"Пн-Пт: 09:00-17:00 ; Сб: 09:00-17:00 ; Вс: 09:00-17:00";56.8601844;68.6466134;1,2 порядок
ВОЛЖСКО-УРАЛЬСКИЙ;ТЮМЕНЬ;1-4TFH-19;POS;ИП Шахлин Александр Валерьевич;Сибирский центр окон и дверей , ИП Шахлин А.В., Ишим г, Республики ул, д. 97б стр.6;;720100990000006;627705, Тюменская обл, Ишим г, Республики ул, д. 97б стр.6;не указано;"Пн-Пт: 09:00-18:00 ; Сб: 09:00-18:00 ; Вс: 09:00-18:00";56.133688;69.521797;3 порядок
ВОЛЖСКО-УРАЛЬСКИЙ;ТЮМЕНЬ;1-4TFH-19;POS;ИП Охапкин А. Н.;Торговый комплекс ЦЕНТРАЛЬНЫЙ;;4501057001;641100, Курганская обл, Шумихинский р-н, Шумиха г, Островского ул, д. 9;"Магазин Центральный, павильон ""Холодильники""";"Пн-Пт: 09:00-18:00 ; Сб: 09:00-16:00 ; Вс: 09:00-14:00";55.2269177;63.2851619;1,2 порядок
ВОЛЖСКО-УРАЛЬСКИЙ;ТЮМЕНЬ;1-4TFH-19;POS;ИП Марамыгина Е.Н.;Цифра ИП Марамыгина Е_Н_Курганская обл_г_Шадринск ул_Свердлова д_82;;450101468000001;641870, Курганская обл, Шадринск г, Свердлова ул, д. 82;магазин ЦИФРА;"Пн-Пт: 09:00-17:45 ; Сб: 10:00-15:45 ; Вс: 10:00-15:45";56.0863865;63.6284425;1,2 порядок
ВОЛЖСКО-УРАЛЬСКИЙ;ТЮМЕНЬ;1-4TFH-19;POS;ИП Иванова Оксана Николаевна;"Мебельный салон ""Диваноф"" ИП Иванова О.Н. с. Сладково,  ул. Кондратьева 4а.";;7201354000012;627610, Тюменская обл, Сладковский р-н, Сладково с, Кондратьева ул, д. 4а;магазин Диваноф ул. Кондратьева 4а;"Пн-Пт: 09:00-18:00 ; Сб: 09:00-18:00 ; Вс: 09:00-17:00";55.52476;70.33546;1,2 порядок
ВОЛЖСКО-УРАЛЬСКИЙ;ТЮМЕНЬ;1-4TFH-19;POS;ИП Халикова Р.М.;Строительный Бум_ИП Халикова Р.М. _Курганская обл._г.Курган_пр.Маршала Голикова_10Е;;450101769000001;640023, Курганская обл, Курган г, Маршала Голикова пр-кт, д. 10Е;не указано;"Пн-Пт: 09:00-21:00 ; Сб: 09:00-21:00 ; Вс: 09:00-21:00";55.475087;65.301098;1,2 порядок
ВОЛЖСКО-УРАЛЬСКИЙ;ТЮМЕНЬ;1-4TFH-19;POS;ИП Каримов Виль Гиндуллович;САША, ИП Каримов В.Г., Тавда г, Ленина ул, дом 96,пом.56;;720100915000003;623950, Свердловская обл, Тавда г, Ленина ул, д. 96,пом.56;не указано;"Пн-Пт: 10:00-20:00 ; Сб: 10:00-20:00 ; Вс: 10:00-20:00";58.0479583;65.273804;3 порядок
ВОЛЖСКО-УРАЛЬСКИЙ;ТЮМЕНЬ;1-4TFH-19;IPOS;Мобильный офис;NEW IPOS, Ялуторовск г, Свободы ул, д. 177,стр1;;660103452000116;627010, Тюменская обл, Ялуторовск г, Свободы ул, д. 177,стр1;ТЦ Купеческий ряд 1 этаж;"Пн-Пт: 09:00-19:00 ; Сб: 09:00-19:00 ; Вс: 09:00-19:00";56.656283;66.3242862;1,2 порядок
ВОЛЖСКО-УРАЛЬСКИЙ;ТЮМЕНЬ;1-4TFH-19;POS;ИП ЕМЕЛЬЯНОВ О.В.;БИРЮСА_ИП Емельянов О.В._г.Курган_ул.К.Мяготина_159/I;;450101058000001;640000, Курганская обл, Курган г, Коли Мяготина ул, д. 159, кор. 1;магазин Бирюса, в центре зала;"Пн-Пт: 09:00-19:00 ; Сб: 09:00-19:00 ; Вс: 09:00-17:00";55.4447843;65.3428193;1,2 порядок
ВОЛЖСКО-УРАЛЬСКИЙ;ТЮМЕНЬ;1-4TFH-19;POS;ИП Кузнецов В.В.;Мебельная галерея_ИП Кузнецов В.В._Курган г, Некрасова ул, д. 15в;;450101764000002;640027, Курганская обл, Курган г, Некрасова ул, д. 15в;не указано;"Пн-Пт: 09:00-19:00 ; Сб: 09:00-19:00 ; Вс: 09:00-19:00";55.453161;65.34331;3 порядок
ВОЛЖСКО-УРАЛЬСКИЙ;ТЮМЕНЬ;1-4TFH-19;POS;ИП Галечян Артур Амбарцумович;Багира. ИП Галечян А.А., Тюмень г, Максима Горького ул, д. 76;;720101631000008;625048, Тюменская обл, Тюмень г, Максима Горького ул, д. 76;Магазин Багира. 1 этаж;"Пн-Пт: 10:00-20:00 ; Сб: 10:00-20:00 ; Вс: 10:00-20:00";57.1463559;65.5559407;1,2 порядок
ВОЛЖСКО-УРАЛЬСКИЙ;ТЮМЕНЬ;1-4TFH-19;POS;ИП Демина И.И.;ТехноДом_ИП Демина И.И._Петухово г, Железнодорожная ул, д. 31, офис 3;;450101697000001;641640, Курганская обл, Петуховский р-н, Петухово г, Железнодорожная ул, д. 31, офис 3;магазин ТЕХНОДОМ, в центре зала;"Пн-Пт: 09:00-18:00 ; Сб: 09:00-18:00 ; Вс: 09:00-18:00";55.0704619;67.8816616;1,2 порядок
ВОЛЖСКО-УРАЛЬСКИЙ;ТЮМЕНЬ;1-4TFH-19;POS;МАРАМЫГИН Е.В.;Фаворит Люкс ИП Марамыгин Е_В_Курганская обл_г_Шадринск ул_Октябрьская д_106;;4501221000003;641870, Курганская обл, Шадринск г, Октябрьская ул, д. 106;Магазин Фаворит, 2 этаж;"Пн-Пт: 09:00-17:45 ; Сб: 09:00-16:45 ; Вс: 10:00-14:45";56.0822635;63.6351431;1,2 порядок
ВОЛЖСКО-УРАЛЬСКИЙ;ТЮМЕНЬ;1-4TFH-19;POS;ХОХАНОВ С.А.;"""ЛОГО"" Шадринск";;4501173004;641870, Курганская обл, Шадринск г, Февральская ул, д. 113;магазин вывеска ЛОГО, в центре зала;"Пн-Пт: 09:00-17:45 ; Сб: 10:00-15:45 ; Вс: 10:00-15:45";56.085892;63.633897;1,2 порядок
ВОЛЖСКО-УРАЛЬСКИЙ;ТЮМЕНЬ;1-4TFH-19;POS;ИП Давлетова Г.Н.;АКБАР _ИП Давлетова Г.Н._ Курганская обл_Петуховский р-н_Петухово г _ул.Тельмана ул, д. 36 А;;450101206000001;641641, Курганская обл, Петуховский р-н, Петухово г, Тельмана ул, д. 36А;строительная база АКБАР, главный павильон, в центре зала;"Пн-Пт: 09:00-18:00 ; Сб: 09:00-18:00 ; Вс: 09:00-15:00";55.0732444;67.9070829;1,2 порядок
ВОЛЖСКО-УРАЛЬСКИЙ;ТЮМЕНЬ;1-4TFH-19;POS;"ООО ""САША""";"САША, ООО ""САША"", Заводоуковск г, 8-ое Марта ул, д. 12";;720102592000002;627140, Тюменская обл, Заводоуковск г, 8-ое Марта ул, д. 12;"Центр города. Напротив гостинницы ОЧАГ. Двухэтажный магазин с вывеской ""САША"" , 1-й этаж, налево.";"Пн-Пт: 09:00-19:00 ; Сб: 10:00-18:00 ; Вс: 10:00-18:00";56.512262;66.5354264;1,2 порядок
ВОЛЖСКО-УРАЛЬСКИЙ;ТЮМЕНЬ;1-4TFH-19;POS;ИП Никитина Ольга Александровна;"""Бытовая техника"", ИП Никитина О.А., Армизонское с, Карла Маркса ул, дом 2а";;720101848000001;627220, Тюменская обл, Армизонский р-н, Армизонское с, Карла Маркса ул, д. 2а;Магазин Бытовая техника 1 этаж;"Пн-Пт: 09:00-18:00 ; Сб: 09:00-18:00 ; Вс: 09:00-18:00";55.940506;67.67678;1,2 порядок
ВОЛЖСКО-УРАЛЬСКИЙ;ТЮМЕНЬ;1-4TFH-19;POS;ИП Шабалин С.С.;Мебель-дом, ИП Шабалин С.С., 627756, Тюменская обл, Ишим г, Гаранина ул, д. 1, кор. 7;;720102102000005;627756, Тюменская обл, Ишим г, Гаранина ул, д. 1, кор. 7;Магазин мебель-дом 1 этаж;"Пн-Пт: 09:00-18:00 ; Сб: 09:00-18:00 ; Вс: 09:00-18:00";56.1065893;69.4714747;1,2 порядок
ВОЛЖСКО-УРАЛЬСКИЙ;ТЮМЕНЬ;1-4TFH-19;POS;ИП Позднякова М. М.;МЕБЕЛЬНАЯ ГАЛЕРЕЯ_ИП ПОЗДНЯКОВА М.М._КУРГАН_НЕКРАСОВА_15_Б;;450101125000002;640007, Курганская обл, Курган г, Некрасова ул, д. 15Б;МЕБЕЛЬНАЯ ГАЛЛЕРЕЯ, на первом этаже, справа от входа;"Пн-Пт: 09:00-19:00 ; Сб: 09:00-19:00 ; Вс: 09:00-18:00";55.4533032;65.3432577;1,2 порядок
ВОЛЖСКО-УРАЛЬСКИЙ;ТЮМЕНЬ;1-4TFH-19;POS;ИП Демаков С.Г.;Саша, онлайн, ИП Демаков С.Г., Ялуторовск г, Ленина ул, дом 24;;720100954000002;627010, Тюменская обл, Ялуторовский р-н, Ялуторовск г, Ленина ул, д. 24;Магазин САША, 1 этаж;"Пн-Пт: 09:00-19:00 ; Сб: 09:00-19:00 ; Вс: 09:00-19:00";56.6514911;66.3161983;1,2 порядок
ВОЛЖСКО-УРАЛЬСКИЙ;ТЮМЕНЬ;1-4TFH-19;POS;ИП Реу В.Н.;МАСТЕР РЕУ ИП РЕУ В_Н_Курганская обл_Далматовский р-н г_Далматово ул_4 Уральского полка д_44 А;;450101168000001;641730, Курганская обл, Далматовский р-н, Далматово г, 4 Уральского полка ул, д. 44 А;магазин МАСТЕР,в конце торгового зала;"Пн-Пт: 09:00-19:00 ; Сб: 09:00-17:00 ; Вс: 09:00-17:00";56.2595536;62.9253757;1,2 порядок
ВОЛЖСКО-УРАЛЬСКИЙ;ТЮМЕНЬ;1-4TFH-19;POS;"ООО ""САША""";"САША ООО ""САША"" 627756, Тюменская обл, Ишим г, Суворова ул, д. 38/1";;720102592000003;627756, Тюменская обл, Ишим г, Суворова ул, д. 38/1;Магазин Саша 1 этаж;"Пн-Пт: 09:00-19:00 ; Сб: 10:00-19:00 ; Вс: 10:00-18:00";56.1115901;69.4752553;1,2 порядок
ВОЛЖСКО-УРАЛЬСКИЙ;ТЮМЕНЬ;1-4TFH-19;POS;ИП Шахлин Александр Валерьевич;Сибирский центр окон и дверей , ИП Шахлин А.В.,  Ишим г, Карла Маркса ул, д. 71;;720100990000007;627756, Тюменская обл, Ишим г, Карла Маркса ул, д. 71;не указано;"Пн-Пт: 09:00-18:00 ; Сб: 09:00-18:00 ; Вс: 09:00-18:00";56.108678;69.466218;3 порядок
ВОЛЖСКО-УРАЛЬСКИЙ;УЛЬЯНОВСК;1-4TFH-27;IPOS;Мобильный офис;newIpos_АО Мобильный офис_г. Ульяновск, пр-т Созидателей д.116;;660103452000111;432072, Ульяновская обл, Ульяновск г, Созидателей пр-кт, д. 116;ТЦ Созидатель, Мегастрой;"Пн-Пт: 10:00-19:00 ; Сб: 10:00-19:00 ; Вс: 10:00-19:00";54.3594705;48.5646017;1,2 порядок
ВОЛЖСКО-УРАЛЬСКИЙ;УЛЬЯНОВСК;1-4TFH-27;POS;ИП Чернышева Р.С.;Бытовая техника, ИП Чернышева Р.С., г. Инза, ул. Тухачевского, д.19;;730100946000001;433030, Ульяновская обл, Инзенский р-н, Инза г, Тухачевского ул, д. 19;ТЦ Альянс, 2 этаж, магазин бытовой техники;"Пн-Пт: 09:00-17:30 ; Сб: 09:00-14:00 ; Вс: 09:00-14:00";53.8587264;46.3508687;1,2 порядок
